{"type":"FeatureCollection","name":"centro_memoria_paulistana__point","crs":{"type":"name","properties":{"name":"urn:ogc:def:crs:OGC:1.3:CRS84"}},"features":[{"type":"Feature","geometry":{"type":"Point","coordinates":[-46.64309219,-23.56029327]},"properties":{"cd_identificador":"5","nm_titulo_placa":"Auditoria da Justiça Militar","dc_enunciado_placa":"Tentando legitimar ações repressivas, o regime militar fingia julgar aqui crimes contra a segurança nacional. Foi quando acusados formalizaram as primeiras denúncias de violações de direitos pela Ditadura","nm_endereco_placa":"Av. Brigadeiro Luís Antônio, 1249","nm_local_placa":"Muro do casarão","dt_carga":"2026-04-17Z"}},{"type":"Feature","geometry":{"type":"Point","coordinates":[-46.64537,-23.54992002]},"properties":{"cd_identificador":"6","nm_titulo_placa":"Bar Jogral","dc_enunciado_placa":"Aberto pelo compositor Luís Carlos Paraná, funcionou aqui entre 1968 e 1971 e foi reduto de músicos e boêmios, entre eles, Paulo Vanzolini e Trio Mocotó","nm_endereco_placa":"R. Avanhandava, 16","nm_local_placa":"Restaurante Migalhas","dt_carga":"2026-04-17Z"}},{"type":"Feature","geometry":{"type":"Point","coordinates":[-46.64394,-23.54081002]},"properties":{"cd_identificador":"7","nm_titulo_placa":"Bar Queen","dc_enunciado_placa":"A boate inaugurada aqui em 2001 formou, com seus shows e performances, figuras de referência para comunidade drag queen, como Cicety Karoline, Victória Principal, Salete Campari e Silvetty Montilla","nm_endereco_placa":"R. Vitória, 826","nm_local_placa":"Fachada do imóvel","dt_carga":"2026-04-17Z"}},{"type":"Feature","geometry":{"type":"Point","coordinates":[-46.65111,-23.54610002]},"properties":{"cd_identificador":"8","nm_titulo_placa":"Batalha da Maria Antônia","dc_enunciado_placa":"Ocorreu nesta rua, em 1968, o confronto entre estudantes do Mackenzie e da USP que resultou na morte do secundarista José Carlos Guimarães, assassinado por membros do comando de caça aos comunistas","nm_endereco_placa":"R. Maria Antônia, 294","nm_local_placa":"Fachada Centro Maria Antonia (USP)","dt_carga":"2026-04-17Z"}},{"type":"Feature","geometry":{"type":"Point","coordinates":[-46.63438,-23.54410002]},"properties":{"cd_identificador":"10","nm_titulo_placa":"Berço do Hip Hop","dc_enunciado_placa":"Abrigou encontros de MC's, Djs, dançarinos e grafiteiros a partir de 1985 e foi fundamental para a formação da cultura de rua","nm_endereco_placa":"Metrô São Bento","nm_local_placa":"Metrô São Bento","dt_carga":"2026-04-17Z"}},{"type":"Feature","geometry":{"type":"Point","coordinates":[-46.64659694,-23.55777511]},"properties":{"cd_identificador":"12","nm_titulo_placa":"Bloco Esfarrapado","dc_enunciado_placa":"Um dos blocos carnavalescos mais tradicionais de São Paulo, fundado por Tinin, Armandinho do Bexiga, Walter Taverna e amigos na escadaria do Teatro Zácaro, se concentra neste cruzamento desde 1947","nm_endereco_placa":"R. Conselheiro Carrão, 448","dt_carga":"2026-04-17Z"}},{"type":"Feature","geometry":{"type":"Point","coordinates":[-46.63370831,-23.54390497]},"properties":{"cd_identificador":"16","nm_titulo_placa":"Caminho das Minas","dc_enunciado_placa":"Começava aqui o caminho muito usado para acessar as Minas Gerais no século 18","nm_endereco_placa":"R. Florêncio de Abreu, 2","nm_local_placa":"Fachada do Imóvel","dt_carga":"2026-04-17Z"}},{"type":"Feature","geometry":{"type":"Point","coordinates":[-46.64838358,-23.54059118]},"properties":{"cd_identificador":"17","nm_titulo_placa":"Caminho de Jundiaí e Campinas","dc_enunciado_placa":"Passava aqui a rota que ligava São Paulo às minas de Goiás. Aberto em 1722, pela bandeira de Bartolomeu Bueno da Silva (o Anhanguera) em busca de ouro e escravos, foi importante via de expansão das lavouras de açúcar e café nos séculos 18 e 19","nm_endereco_placa":"R. Sebastião Pereira, 127","nm_local_placa":"Bar Van Grogh","dt_carga":"2026-04-17Z"}},{"type":"Feature","geometry":{"type":"Point","coordinates":[-46.63433118,-23.55323504]},"properties":{"cd_identificador":"18","nm_titulo_placa":"Caminho de Santos","dc_enunciado_placa":"Começava aqui o percurso que ligava São Paulo a Santos no período colonial. Antes uma trilha indígena, foi usada pelos portugueses para chegar ao planalto. Originou a Estrada Velha de Santos","nm_endereco_placa":"R. da Glória, 21","nm_local_placa":"Fachada do imóvel","dt_carga":"2026-04-17Z"}},{"type":"Feature","geometry":{"type":"Point","coordinates":[-46.64358835,-23.54221165]},"properties":{"cd_identificador":"22","nm_titulo_placa":"Caneca de Prata","dc_enunciado_placa":"Aberto aqui em 1965, é reconhecido como o primeiro bar gay da região. Compõe um circuito de estabelecimentos frequentados pela comunidade LGBT+ do Arouche","nm_endereco_placa":"Av. Vieira de Carvalho, 63","nm_local_placa":"Na fachada do imóvel","dt_carga":"2026-04-17Z"}},{"type":"Feature","geometry":{"type":"Point","coordinates":[-46.63659,-23.52926002]},"properties":{"cd_identificador":"26","nm_titulo_placa":"Casa do Povo","dc_enunciado_placa":"Erguida pela comunidade judaica em 1953, em memória às vítimas do nazismo, sediou a escola Scholem Aleichem e o teatro TAIB. Firmou-se como lugar de resistência à Ditadura e de experimentação cultural","nm_endereco_placa":"R. Três Rios, 252","nm_local_placa":"Pilar ao lado da porta de entrada","dt_carga":"2026-04-17Z"}},{"type":"Feature","geometry":{"type":"Point","coordinates":[-46.63466094,-23.55610814]},"properties":{"cd_identificador":"29","nm_titulo_placa":"Cemitério dos Aflitos","dc_enunciado_placa":"O local, onde eram enterrados pobres, escravizados, criminosos e indígenas, funcionou nesta quadra nos séculos 18 e 19","nm_endereco_placa":"R. dos Aflitos, 70","nm_local_placa":"Fachada do imóvel","dt_carga":"2026-04-17Z"}},{"type":"Feature","geometry":{"type":"Point","coordinates":[-46.63461,-23.54843002]},"properties":{"cd_identificador":"30","nm_titulo_placa":"Chafariz da Misericórdia","dc_enunciado_placa":"Executado pelo construtor alforriado Tebas, foi ponto de encontro dos afro-brasileiros no século 19; ficava no largo onde está este edifício, erguido com parte das doações para a revolução de 1932","nm_endereco_placa":"Largo da Misericórdia, 23","nm_local_placa":"Condomínio Edifício Ouro para o Bem de São Paulo","dt_carga":"2026-04-17Z"}},{"type":"Feature","geometry":{"type":"Point","coordinates":[-46.63643,-23.54952002]},"properties":{"cd_identificador":"31","nm_titulo_placa":"Chafariz São Francisco","dc_enunciado_placa":"Em 1829, com o aumento da população no centro, a Câmara se vê pressionada a tornar públicos os chafarizes, como o que existia aqui e que servia apenas os franciscanos e estudantes de direito","nm_endereco_placa":"R. Senador Paulo Egídio, 64, 70, 72 (Lg. São Francisco)","nm_local_placa":"Fachada edifício em frente ao largo (embaixo da marquise)","dt_carga":"2026-04-17Z"}},{"type":"Feature","geometry":{"type":"Point","coordinates":[-46.63103,-23.55973002]},"properties":{"cd_identificador":"33","nm_titulo_placa":"Cinco Esquinas","dc_enunciado_placa":"Praticou-se aqui, no início do século 20, a roda de tiririca, brincadeira de rasteiras, similar à capoeira, misturada a batuques que sambistas e engraxates da Sé faziam com instrumentos de trabalho","nm_endereco_placa":"R. do Glicério, 877 c/  R. do Lavapés","nm_local_placa":"Fachada do imóvel","dt_carga":"2026-04-17Z"}},{"type":"Feature","geometry":{"type":"Point","coordinates":[-46.63585,-23.54842002]},"properties":{"cd_identificador":"34","nm_titulo_placa":"Cine Alhambra","dc_enunciado_placa":"Um dos poucos edifícios de cinema remanescentes do período mudo; sua arquitetura orientalizada, salão de chá e minicampo de golf do jardim criavam um ambiente exótico, apreciado pela elite paulistana","nm_endereco_placa":"R. Direita, 231","nm_local_placa":"Pilar da fachada Magazine Luiza","dt_carga":"2026-04-17Z"}},{"type":"Feature","geometry":{"type":"Point","coordinates":[-46.66256,-23.55561002]},"properties":{"cd_identificador":"35","nm_titulo_placa":"Cine Belas Artes","dc_enunciado_placa":"Dedicado ao cinema desde 1954, este espaço passou a ser chamado Cine Belas Artes em 1967 e sediou a cinemateca nos anos 1970. Ponto de encontro, preserva uma programação alternativa","nm_endereco_placa":"R. da Consolação, 2423","nm_local_placa":"Fachada Cine Belas Artes","dt_carga":"2026-04-17Z"}},{"type":"Feature","geometry":{"type":"Point","coordinates":[-46.64613,-23.54842002]},"properties":{"cd_identificador":"36","nm_titulo_placa":"Cine Bijou","dc_enunciado_placa":"Inaugurado neste local, em 1962, foi ponto de encontro de movimentos de resistência à ditadura militar brasileira, onde se exibiam produções consideradas subversivas pelo regime","nm_endereco_placa":"Pc. Franklin Roosevelt, 172","nm_local_placa":"Fachada \"Teatro do Ator\"","dt_carga":"2026-04-17Z"}},{"type":"Feature","geometry":{"type":"Point","coordinates":[-46.63699,-23.54514002]},"properties":{"cd_identificador":"37","nm_titulo_placa":"Cine Cairo","dc_enunciado_placa":"Inaugurado em 1952, foi um dos principais cinemas da região junto ao Cine Dom Pedro II, que ficava no outro lado do vale. Teve seu auge na década de 1960 ao passar faroestes hollywoodianos","nm_endereco_placa":"R. Formosa, S/N","nm_local_placa":"Pilar da fachada","dt_carga":"2026-04-17Z"}},{"type":"Feature","geometry":{"type":"Point","coordinates":[-46.65121,-23.56551002]},"properties":{"cd_identificador":"40","nm_titulo_placa":"Cine Gazetinha","dc_enunciado_placa":"Foi com a projeção do romance francês “Um Homem, Uma Mulher”, de Claude Lelouch, que o Gazetinha abriu as portas aqui em 1967. Fechou em 1999 e em 2005 foi reinaugurado, passando a se chamar Reserva Cultural","nm_endereco_placa":"Av. Paulista, 900","nm_local_placa":"Reserva Cultural","dt_carga":"2026-04-17Z"}},{"type":"Feature","geometry":{"type":"Point","coordinates":[-46.64055,-23.54283002]},"properties":{"cd_identificador":"41","nm_titulo_placa":"Cine Ipiranga","dc_enunciado_placa":"Foi inaugurado neste local em 1943, inspirado nas grandes salas de cinema alemãs. Era considerada uma obra de engenharia inovadora nos anos 1940, e das mais elegantes salas da cidade","nm_endereco_placa":"Av. Ipiranga, 786","nm_local_placa":"Pilar da fachada Hotel Excelsior","dt_carga":"2026-04-17Z"}},{"type":"Feature","geometry":{"type":"Point","coordinates":[-46.65844172,-23.55655692]},"properties":{"cd_identificador":"42","nm_titulo_placa":"Cine Majestic","dc_enunciado_placa":"Inaugurado neste local em 1947, participou da ascensão da Rua Augusta como espaço de sociabilidade nos anos 1960 e da retomada do cinema brasileiro após o fim da Embrafilme em 1990","nm_endereco_placa":"R. Augusta, 1475","nm_local_placa":"Fachada Espaço Itau Cinema","dt_carga":"2026-04-17Z"}},{"type":"Feature","geometry":{"type":"Point","coordinates":[-46.64099,-23.54263002]},"properties":{"cd_identificador":"43","nm_titulo_placa":"Cine Marabá","dc_enunciado_placa":"Inaugurado neste local, em 1944, na então cinelândia paulistana, recebeu pré-estréias da antiga Companhia Vera Cruz. Foi restaurado pela empresa PlayArte Cinemas e reaberto em 2009","nm_endereco_placa":"Av. Ipiranga, 757","nm_local_placa":"Fachada Marabá (Playarte)","dt_carga":"2026-04-17Z"}},{"type":"Feature","geometry":{"type":"Point","coordinates":[-46.63832,-23.54433002]},"properties":{"cd_identificador":"44","nm_titulo_placa":"Cine Marrocos","dc_enunciado_placa":"Inaugurado aqui em 1953, possuía decoração inspirada nas Mil e Uma Noites e foi a sala mais elegante da cidade na década de 1950, onde só se entrava de terno e gravata","nm_endereco_placa":"R. Conselheiro Crispiano, 344 a 352","nm_local_placa":"Pilar externo Cine Marrocos","dt_carga":"2026-04-17Z"}},{"type":"Feature","geometry":{"type":"Point","coordinates":[-46.64675,-23.54672002]},"properties":{"cd_identificador":"45","nm_titulo_placa":"Cine Matilha","dc_enunciado_placa":"Cinema Independente, desde sua abertura em 2009 é importante espaço democrático de discussão de pautas ligadas aos direitos humanos e ambientais, abrigando movimentos artísticos de resistência","nm_endereco_placa":"R. Rego Freitas, 542","nm_local_placa":"Fachada do imóvel","dt_carga":"2026-04-17Z"}},{"type":"Feature","geometry":{"type":"Point","coordinates":[-46.64144444,-23.5418889]},"properties":{"cd_identificador":"46","nm_titulo_placa":"Cine Metro","dc_enunciado_placa":"Foi inaugurada aqui, em 1938, a primeira sala de cinema da cidade pertencente a uma produtora de Hollywood, a Metro Goldwyn Mayer. Aqui também foi instalado o primeiro ar-condicionado da cidade","nm_endereco_placa":"Av. São João, 791","nm_local_placa":"Igreja Nacional da Graça de Deus","dt_carga":"2026-04-17Z"}},{"type":"Feature","geometry":{"type":"Point","coordinates":[-46.61587932,-23.54073392]},"properties":{"cd_identificador":"47","nm_titulo_placa":"Cine Oberdan","dc_enunciado_placa":"Inaugurado aqui em 1929, espaço de entretenimento do então populoso bairro operário. Como outras instituições da época ligadas aos imigrantes italianos, esta homenagava o nacionalista Guglielmo Oberdan. Encerrou suas atividades nos anos 1960","nm_endereco_placa":"R. Ministro Firmino Whitaker, 95 c/  R. Saião Lobato","dt_carga":"2026-04-17Z"}},{"type":"Feature","geometry":{"type":"Point","coordinates":[-46.63929016,-23.5440219]},"properties":{"cd_identificador":"48","nm_titulo_placa":"Cine Olido","dc_enunciado_placa":"Inaugurado neste local, em 1957, no auge da cinelândia paulistana, foi o primeiro da cidade a funcionar dentro de uma galeria comercial e a vender ingressos numerados e antecipados","nm_endereco_placa":"Av. São João, 473","nm_local_placa":"Galeria Olido","dt_carga":"2026-04-17Z"}},{"type":"Feature","geometry":{"type":"Point","coordinates":[-46.66248,-23.56040002]},"properties":{"cd_identificador":"49","nm_titulo_placa":"Cine Orly","dc_enunciado_placa":"Inaugurado em 1969, tornou-se CineSesc no final dos anos 1970. No bar localizado dentro da sala de exibição, se assistiram a mostras, festivais e filmes independentes dos mais diversos países","nm_endereco_placa":"R. Augusta, 2075","nm_local_placa":"Fachada Cine SESC","dt_carga":"2026-04-17Z"}},{"type":"Feature","geometry":{"type":"Point","coordinates":[-46.66036178,-23.55927527]},"properties":{"cd_identificador":"51","nm_titulo_placa":"Cine Rio","dc_enunciado_placa":"Inaugurado em 1963, é símbolo da resistência dos cinemas de rua. Seu valor à cidade mobilizou frequentadores e poder público, impedindo que fechasse nos anos 2000","nm_endereco_placa":"Av. Paulista, 2073","nm_local_placa":"Conjunto Nacional - CineArte","dt_carga":"2026-04-17Z"}},{"type":"Feature","geometry":{"type":"Point","coordinates":[-46.63846289,-23.54354277]},"properties":{"cd_identificador":"52","nm_titulo_placa":"Cine UFA-Palace","dc_enunciado_placa":"Ligado à produtora alemã que exibiu seus filmes aqui, seu nome foi alterado para Art Palácio em 1939, por causa da 2ª Guerra Mundial. Projeto de Rino Levi, era a sala favorita de Mazzaropi, que nela lançava seus filmes","nm_endereco_placa":"Av. São João, 419","dt_carga":"2026-04-17Z"}},{"type":"Feature","geometry":{"type":"Point","coordinates":[-46.60862898,-23.53949089]},"properties":{"cd_identificador":"53","nm_titulo_placa":"Cine Universo","dc_enunciado_placa":"Funcionou aqui a maior sala de cinema da América Latina, com 4.325 lugares. Para trocar e refrescar o ar, a sala tinha um teto retrátil, que era aberto entre as sessões","nm_endereco_placa":"Av. Celso Garcia, 378","nm_local_placa":"Fachada do imóvel","dt_carga":"2026-04-17Z"}},{"type":"Feature","geometry":{"type":"Point","coordinates":[-46.637325,-23.54696802]},"properties":{"cd_identificador":"55","nm_titulo_placa":"Grande Comício das Diretas Já","dc_enunciado_placa":"A manifestação, que reuniu cerca de 1,5 milhão de pessoas, ocorreu no Vale do Anhangabaú em 16 de abril de 1984","nm_endereco_placa":"Vd. do Chá, S/N","nm_local_placa":"Pilar do viaduto (em cima)","dt_carga":"2026-04-17Z"}},{"type":"Feature","geometry":{"type":"Point","coordinates":[-46.63719603,-23.54426692]},"properties":{"cd_identificador":"57","nm_titulo_placa":"Conservatório Dramático Musical","dc_enunciado_placa":"Fundado em 1906 e ativo até meados dos anos 1940, teve professores como Mário de Andrade e é considerado a primeira escola de teatro do Brasil","nm_endereco_placa":"Av. São João, 281","dt_carga":"2026-04-17Z"}},{"type":"Feature","geometry":{"type":"Point","coordinates":[-46.62019581,-23.51808868]},"properties":{"cd_identificador":"58","nm_titulo_placa":"Copo Americano","dc_enunciado_placa":"Neste local, um lago antes da retificação do rio Tietê, funcionou a fábrica central da Nadir Figueiredo entre os anos 1950 e 2013, onde se produziam os populares copos","nm_endereco_placa":"Av. Morvan Dias de Figueiredo, 353","dt_carga":"2026-04-17Z"}},{"type":"Feature","geometry":{"type":"Point","coordinates":[-46.63014,-23.54234002]},"properties":{"cd_identificador":"59","nm_titulo_placa":"Departamento de Cultura de São Paulo","dc_enunciado_placa":"Entre 1935 a 1938, foi aqui o gabinete do intelectual Mário de Andrade quando dirigiu o pioneiro órgão público, embrião da atual Secretaria Municipal de Cultura","nm_endereco_placa":"R. Cantareira, 216","nm_local_placa":"Edificação anexo do Mercadão","dt_carga":"2026-04-17Z"}},{"type":"Feature","geometry":{"type":"Point","coordinates":[-46.62364,-23.52545002]},"properties":{"cd_identificador":"60","nm_titulo_placa":"Desafio ao Galo","dc_enunciado_placa":"O futebol de várzea paulistano ganhou evidência no campeonato disputado aqui. Televisionado entre 1972 a 1996, revelou importantes jogadores e narradores","nm_endereco_placa":"Av. Cruzeiro do Sul, 808","nm_local_placa":"Muro CMTC Clube","dt_carga":"2026-04-17Z"}},{"type":"Feature","geometry":{"type":"Point","coordinates":[-46.63223,-23.54844002]},"properties":{"cd_identificador":"61","nm_titulo_placa":"Descida das lavadeiras","dc_enunciado_placa":"O Beco do Pinto, também chamado Beco do Colégio, foi importante acesso à várzea do rio Tamanduateí para lavadeiras, pescadores e carregadores de água até o século 19","nm_endereco_placa":"R. Roberto Símonsen, 136","nm_local_placa":"Beco do Pinto","dt_carga":"2026-04-17Z"}},{"type":"Feature","geometry":{"type":"Point","coordinates":[-46.641241,-23.54582683]},"properties":{"cd_identificador":"62","nm_titulo_placa":"Diários Associados","dc_enunciado_placa":"Edifício construído em 1947 como sede das empresas de comunicação do jornalista Assis Chateaubriand, o Chatô. Também abrigou a primeira sede do MASP e do MAM","nm_endereco_placa":"R. 7 de Abril, 230","nm_local_placa":"Edifício Condomínio Guaratinguetá","dt_carga":"2026-04-17Z"}},{"type":"Feature","geometry":{"type":"Point","coordinates":[-46.63128769,-23.55984838]},"properties":{"cd_identificador":"64","nm_titulo_placa":"Escola de Samba Lavapés","dc_enunciado_placa":"Agremiação ativa mais antiga da cidade, surgiu de rodas de música que ocorriam nestas esquinas nos anos 1930","nm_endereco_placa":"R. da Glória, 973","nm_local_placa":"Primeira faixa de muro da Rua Sinimbu","dt_carga":"2026-04-17Z"}},{"type":"Feature","geometry":{"type":"Point","coordinates":[-46.63473937,-23.54872764]},"properties":{"cd_identificador":"65","nm_titulo_placa":"Esquina Musical","dc_enunciado_placa":"O Palacete Tereza de Toledo Lara abrigou as casas Bevilacqua e Vitale, lojas de instrumentos musicais e partituras, além da sede da Rádio Record nos anos 1940 e 1950, auge da era do rádio","nm_endereco_placa":"R. Direita 115 c/ R. Quintino Bocaiúva, 16","nm_local_placa":"Fachada chanfrada Casa de Francisca","dt_carga":"2026-04-17Z"}},{"type":"Feature","geometry":{"type":"Point","coordinates":[-46.63631061,-23.54673478]},"properties":{"cd_identificador":"66","nm_titulo_placa":"Exposição de Anita Malfatti","dc_enunciado_placa":"Ocorreu neste local, em 1917, a histórica mostra de pintura, que inspirou a semana de arte moderna","nm_endereco_placa":"R. Líbero Badaró, 332","nm_local_placa":"Restaurante Pirandello","dt_carga":"2026-04-17Z"}},{"type":"Feature","geometry":{"type":"Point","coordinates":[-46.63937,-23.57397002]},"properties":{"cd_identificador":"67","nm_titulo_placa":"Fábrica da Brahma","dc_enunciado_placa":"O complexo, fundado aqui em 1885 pela Cervejaria Guanabara, foi adquirido pela Brahma em 1928, quando iniciou a produção da cerveja Brahma Chopp no Estado. Suas instalações foram demolidas em 1994","nm_endereco_placa":"R. Apeninos, 800","nm_local_placa":"Muro Condmínio \"EastSide\"","dt_carga":"2026-04-17Z"}},{"type":"Feature","geometry":{"type":"Point","coordinates":[-46.63579489,-23.5458185]},"properties":{"cd_identificador":"74","nm_titulo_placa":"Garçonnière de Oswald de Andrade","dc_enunciado_placa":"O apartamento serviu como espaço de convivência entre artistas e intelectuais que, mais tarde, formaram o núcleo da Semana de Arte Moderna de 1922","nm_endereco_placa":"R. Líbero Badaró, 446","nm_local_placa":"Edifício do Centro de Formação de Bombeiros Civis","dt_carga":"2026-04-17Z"}},{"type":"Feature","geometry":{"type":"Point","coordinates":[-46.64606,-23.54372002]},"properties":{"cd_identificador":"77","nm_titulo_placa":"Homo Sapiens","dc_enunciado_placa":"Uma das primeiras boates LGBT+ desta região funcionou aqui entre 1978 e 1992. Ganhou fama internacional por performances de homens gays, drag queens e shows de comédia","nm_endereco_placa":"R. Marquês de Itu, 182","nm_local_placa":"Fachada ABC Bailão","dt_carga":"2026-04-17Z"}},{"type":"Feature","geometry":{"type":"Point","coordinates":[-46.63447,-23.54552002]},"properties":{"cd_identificador":"78","nm_titulo_placa":"Igreja N Sra do Rosário dos Homens Pretos","dc_enunciado_placa":"Ficava aqui de 1725 até 1903, quando foi demolida e mais tarde reerguida no Largo do Paissandu","nm_endereco_placa":"Pc. Antônio Prado, 48","nm_local_placa":"Bolsa de Valores","dt_carga":"2026-04-17Z"}},{"type":"Feature","geometry":{"type":"Point","coordinates":[-46.63882,-23.54288002]},"properties":{"cd_identificador":"80","nm_titulo_placa":"Invenção do Bauru","dc_enunciado_placa":"Casimiro Pinto Neto, aluno da Faculdade de direito do Largo São Francisco, tinha o apelido de sua terra natal, bauru, e criou aqui o famoso sanduíche","nm_endereco_placa":"Largo do Paissandú, 27","nm_local_placa":"Restaurante Ponto Chic","dt_carga":"2026-04-17Z"}},{"type":"Feature","geometry":{"type":"Point","coordinates":[-46.65198,-23.54513002]},"properties":{"cd_identificador":"82","nm_titulo_placa":"João Sebastião Bar","dc_enunciado_placa":"Foi importante ponto de encontro de artistas da Bossa Nova entre 1964 e 1967. Abrigou alguns dos primeiros shows de Chico Buarque e o primeiro happening do Brasil, concebido por Wesley Duke Lee em 1963","nm_endereco_placa":"R. Dona Veridiana, 661","nm_local_placa":"Fachada da Pizzaria Veridiana","dt_carga":"2026-04-17Z"}},{"type":"Feature","geometry":{"type":"Point","coordinates":[-46.66064,-23.52631002]},"properties":{"cd_identificador":"83","nm_titulo_placa":"Largo da Banana","dc_enunciado_placa":"Ponto inicial do samba paulistano, o largo que havia aqui recebeu, a partir do final do século 19, estivadores negros reunidos em rodas de samba duro e tiririca, capoeira paulista sambada","nm_endereco_placa":"Vd. Pacaembu c/ R. Barra Funda, 1133","nm_local_placa":"Pilar interno do Viaduto Pacaembú","dt_carga":"2026-04-17Z"}},{"type":"Feature","geometry":{"type":"Point","coordinates":[-46.63561,-23.55534002]},"properties":{"cd_identificador":"84","nm_titulo_placa":"Largo da Forca","dc_enunciado_placa":"Execuções de condenados foram conduzidas aqui nos séculos 18 e 19","nm_endereco_placa":"Pc. da Liberdade-Japão","nm_local_placa":"Estação Liberdade-Japão do Metro","dt_carga":"2026-04-17Z"}},{"type":"Feature","geometry":{"type":"Point","coordinates":[-46.64411,-23.55959002]},"properties":{"cd_identificador":"85","nm_titulo_placa":"Madame Satã","dc_enunciado_placa":"Entre 1983 e 1989, este espaço foi central para a produção da cultura underground ligada ao new wave, dark, punk rock, pós-punk e referência para atores, performers e músicos. Reabriu em 2012","nm_endereco_placa":"R. Conselheiro Ramalho, 873","nm_local_placa":"Fachada do imóvel","dt_carga":"2026-04-17Z"}},{"type":"Feature","geometry":{"type":"Point","coordinates":[-46.64544,-23.54122002]},"properties":{"cd_identificador":"87","nm_titulo_placa":"Operação Tarântula","dc_enunciado_placa":"Ocupado desde os anos 1950 pela comunidade LGBT+ com festas, encontros e outros eventos de resistência, em 1987 o Arouche foi palco da ação policial, que violou aqui direitos de trans e travestis","nm_endereco_placa":"Largo do Arouche","nm_local_placa":"Mercado de Flores - Largo do Arouche","dt_carga":"2026-04-17Z"}},{"type":"Feature","geometry":{"type":"Point","coordinates":[-46.63441847,-23.54618474]},"properties":{"cd_identificador":"89","nm_titulo_placa":"Militão Augusto de Azevedo","dc_enunciado_placa":"Entre 1875 a 1885, aqui, em seu ateliê Photographia Americana, o fotógrafo (1837-1905) retratou a população e os cenários da época, criando um importante acervo sobre o século 19","nm_endereco_placa":"R. XV de Novembro, 317","nm_local_placa":"Fachada do imóvel","dt_carga":"2026-04-17Z"}},{"type":"Feature","geometry":{"type":"Point","coordinates":[-46.63333,-23.55017002]},"properties":{"cd_identificador":"90","nm_titulo_placa":"Palacete Santa Helena","dc_enunciado_placa":"Neste local ficavam os ateliês dos artistas plásticos Francisco Rebolo e Mário Zanini, onde, a partir de 1935, encontravam-se os pintores do Grupo Santa Helena, entre eles Alfredo Volpi","nm_endereco_placa":"Pc. Clóvis Beviláqua","nm_local_placa":"Estação Sé do Metro","dt_carga":"2026-04-17Z"}},{"type":"Feature","geometry":{"type":"Point","coordinates":[-46.64266,-23.55809002]},"properties":{"cd_identificador":"91","nm_titulo_placa":"Palácio das Princesas","dc_enunciado_placa":"Brenda Lee adquiriu este imóvel em 1984 e nele criou uma casa de apoio à população travesti da cidade, onde oferecia assistência na luta contra a violência do Estado e no combate ao HIV nos anos 1980","nm_endereco_placa":"R. Major Diogo, 779","nm_local_placa":"Fachada do imóvel","dt_carga":"2026-04-17Z"}},{"type":"Feature","geometry":{"type":"Point","coordinates":[-46.645203,-23.56073202]},"properties":{"cd_identificador":"93","nm_titulo_placa":"Pato N´Água","dc_enunciado_placa":"Walter Gomes de Oliveira fez história como apitador de bateria da Vai-Vai; o samba \"Silêncio no Bexiga\", de Geraldo Filme, foi uma homenagem após sua morte, em 1963, em episódio não esclarecido","nm_endereco_placa":"R. Rui Barbosa, 588","nm_local_placa":"Fachada UESP","dt_carga":"2026-04-17Z"}},{"type":"Feature","geometry":{"type":"Point","coordinates":[-46.63495,-23.55301002]},"properties":{"cd_identificador":"94","nm_titulo_placa":"Pelourinho","dc_enunciado_placa":"Funcionou aqui nos séculos 18 e 19 como local de castigo de negros escravizados","nm_endereco_placa":"Largo 7 de Setembro, 74","nm_local_placa":"Fachada do imóvel","dt_carga":"2026-04-17Z"}},{"type":"Feature","geometry":{"type":"Point","coordinates":[-46.63814707,-23.53092455]},"properties":{"cd_identificador":"95","nm_titulo_placa":"Pletzale","dc_enunciado_placa":"O termo iídiche para “pracinha” denominava esta esquina onde, entre o início do século passado e os anos 1990, imigrantes judeus compartilhavam notícias, negociavam e conversavam","nm_endereco_placa":"R. Correia de Melo, 23 c/ R. Ribeiro de Lima c/ R. da Graça","nm_local_placa":"Fachada Loja Amore","dt_carga":"2026-04-17Z"}},{"type":"Feature","geometry":{"type":"Point","coordinates":[-46.64259,-23.54634002]},"properties":{"cd_identificador":"96","nm_titulo_placa":"Ponto de Encontro","dc_enunciado_placa":"Bar frequentado por jovens estudantes e artistas como Chico Buarque e Gilberto Gil. Aqui, Plinio Marcos estreou, em 1966, sua primeira peça como profissional: “Dois Perdidos Numa Noite Suja”","nm_endereco_placa":"Av. São Luis, 187","nm_local_placa":"Subsolo da Galeria Metrópole - entrada","dt_carga":"2026-04-17Z"}},{"type":"Feature","geometry":{"type":"Point","coordinates":[-46.63278,-23.54440002]},"properties":{"cd_identificador":"97","nm_titulo_placa":"Porto Geral","dc_enunciado_placa":"Neste local, funcionou durante os séculos 18 e 19 o principal porto da cidade, na antiga margem do rio Tamanduateí antes de sua retificação","nm_endereco_placa":"Ladeira Porto Geral, 106 c/ R. 25 de Março, 617","nm_local_placa":"Fachada do imóvel","dt_carga":"2026-04-17Z"}},{"type":"Feature","geometry":{"type":"Point","coordinates":[-46.64668,-23.54804002]},"properties":{"cd_identificador":"98","nm_titulo_placa":"Primeira Parada LGBT em São Paulo","dc_enunciado_placa":"A manifestação com cerca de 500 pessoas ocorreu nesta praça em 1996","nm_endereco_placa":"Pc. Franklin Roosevelt, S/N","nm_local_placa":"Pergolado da Praça ao lado do café e do posto policial","dt_carga":"2026-04-17Z"}},{"type":"Feature","geometry":{"type":"Point","coordinates":[-46.63354723,-23.54645557]},"properties":{"cd_identificador":"99","nm_titulo_placa":"Primeira Projeção Cinematográfica da Cidade","dc_enunciado_placa":"Ocorreu aqui, no Teatro Apolo, em 9 de janeiro de 1898, com o uso de um aparelho cinematographo","nm_endereco_placa":"R. Boa Vista, 127","nm_local_placa":"Fachada do imóvel","dt_carga":"2026-04-17Z"}},{"type":"Feature","geometry":{"type":"Point","coordinates":[-46.6463,-23.54893002]},"properties":{"cd_identificador":"101","nm_titulo_placa":"Primeiro Show de Elis na cidade","dc_enunciado_placa":"Aconteceu aqui, em 1964, quando Elis Regina tinha 19 anos; este local foi reduto da Bossa Nova desde que o cantor Dick Farney inaugurou nele um bar com seu nome","nm_endereco_placa":"Pc. Roosevelt, 118","nm_local_placa":"Bar PPP","dt_carga":"2026-04-17Z"}},{"type":"Feature","geometry":{"type":"Point","coordinates":[-46.65697,-23.55643002]},"properties":{"cd_identificador":"103","nm_titulo_placa":"Raul Seixas","dc_enunciado_placa":"Cantor e compositor pioneiro do rock brasileiro (1945-1989), viveu seus últimos anos neste edifício, na década de 1980","nm_endereco_placa":"R. Frei Caneca, 1100","nm_local_placa":"Condomínio Edifício Aliança","dt_carga":"2026-04-17Z"}},{"type":"Feature","geometry":{"type":"Point","coordinates":[-46.63425,-23.54435002]},"properties":{"cd_identificador":"104","nm_titulo_placa":"Cacique Tibiriçá","dc_enunciado_placa":"Nesta região residiu o cacique Tibiriçá, personalidade histórica determinante para a escolha, em meados do século 16, dos Campos de Piratininga como local de implantação da Vila de São Paulo","nm_endereco_placa":"R. São Bento c/ Lg. São Bento","nm_local_placa":"Largo São Bento","dt_carga":"2026-04-17Z"}},{"type":"Feature","geometry":{"type":"Point","coordinates":[-46.64046,-23.54231002]},"properties":{"cd_identificador":"106","nm_titulo_placa":"Sampa","dc_enunciado_placa":"Hino popular de São Paulo, composto por Caetano Veloso, tornou célebre esta esquina, da qual o cantor foi vizinho quando morou na cidade","nm_endereco_placa":"Av. São João, 677","nm_local_placa":"Esquina Chanfrada Bar Brahma","dt_carga":"2026-04-17Z"}},{"type":"Feature","geometry":{"type":"Point","coordinates":[-46.64601,-23.54803002]},"properties":{"cd_identificador":"108","nm_titulo_placa":"Satyrianas","dc_enunciado_placa":"Festival de teatro que celebra a primavera por 78 horas contínuas, concentra-se nesta praça e se espalha pelo entorno desde 2002","nm_endereco_placa":"Pc. Franklin Roosevelt, 214, 222","nm_local_placa":"Fachada do imóvel","dt_carga":"2026-04-17Z"}},{"type":"Feature","geometry":{"type":"Point","coordinates":[-46.64307,-23.55389002]},"properties":{"cd_identificador":"110","nm_titulo_placa":"Teatro Brasileiro de Comédia","dc_enunciado_placa":"O TBC foi fundado aqui em 1948 por Franco Zampari, inaugurando o chamado novo profissionalismo no Teatro Moderno. Estreou com as peças \"La Voix Humaine\" e \"A Mulher do Próximo\"","nm_endereco_placa":"R. Major Diogo, 311, 315","nm_local_placa":"Fachada do imóvel","dt_carga":"2026-04-17Z"}},{"type":"Feature","geometry":{"type":"Point","coordinates":[-46.6478,-23.54317002]},"properties":{"cd_identificador":"111","nm_titulo_placa":"Teatro de Janela","dc_enunciado_placa":"Foi fundada aqui pelo Grupo Esparrama, em 2013, uma forma teatral peculiar, em que o palco é a janela do edifício e o asfalto do Minhocão abriga sua plateia","nm_endereco_placa":"Elevado Presidente João Goulart","nm_local_placa":"No guarda-corpo do Minhocão, na altura do edifício da Rua Amaral Gurgel, 158","dt_carga":"2026-04-17Z"}},{"type":"Feature","geometry":{"type":"Point","coordinates":[-46.64540976,-23.54905011]},"properties":{"cd_identificador":"113","nm_titulo_placa":"Velódromo Paulista","dc_enunciado_placa":"Construído em 1895 para provas ciclísticas e depois adaptado para o futebol, foi demolido em 1916 para a abertura desta rua. É considerado o primeiro estádio esportivo da cidade","nm_endereco_placa":"R. Nestor Pestana, 163","nm_local_placa":"Drosophyla","dt_carga":"2026-04-17Z"}},{"type":"Feature","geometry":{"type":"Point","coordinates":[-46.66410038,-23.56560074]},"properties":{"cd_identificador":"114","nm_titulo_placa":"Vila Flavio de Carvalho","dc_enunciado_placa":"Esta vila de 1938, que leva hoje o nome do arquiteto e artista plástico que a projetou, tem referência nas vanguardas modernas europeias. Foi pioneira ao conceber casas distintas no mesmo conjunto","nm_endereco_placa":"Al. Lorena, 1257","dt_carga":"2026-04-17Z"}},{"type":"Feature","geometry":{"type":"Point","coordinates":[-46.63378845,-23.55083054]},"properties":{"cd_identificador":"117","nm_titulo_placa":"Chacina da Sé","dc_enunciado_placa":"As noites de 19 e 22 de agosto de 2004 ficaram marcadas pela execução, neste local, de sete pessoas em situação de rua, todas com golpes na cabeça","nm_endereco_placa":"Pc. da Sé","nm_local_placa":"Mureta da Praça da Sé","dt_carga":"2026-04-17Z"}},{"type":"Feature","geometry":{"type":"Point","coordinates":[-46.62508,-23.57620002]},"properties":{"cd_identificador":"119","nm_titulo_placa":"Revoltosos de 1924","dc_enunciado_placa":"Por oferecer visão privilegiada da região, esta igreja foi ponto estratégico na Revolução de 1924, quando os tenentistas liderados pelo general Isidoro Dias Lopes a usaram como trincheira","nm_endereco_placa":"Av. Lacerda Franco, 2","nm_local_placa":"Muro ao lado da Igreja de São Joaquim","dt_carga":"2026-04-17Z"}},{"type":"Feature","geometry":{"type":"Point","coordinates":[-46.6634368,-23.56129591]},"properties":{"cd_identificador":"121","nm_titulo_placa":"Nation Disco Clube","dc_enunciado_placa":"Marco da cena clubber paulistana, funcionou no subsolo desta galeria de 1988 a 1991. Reuniu um público jovem e formador de opinião sobre música, arte, teatro e moda","nm_endereco_placa":"R. Augusta, 2203","dt_carga":"2026-04-17Z"}},{"type":"Feature","geometry":{"type":"Point","coordinates":[-46.651,-23.54199002]},"properties":{"cd_identificador":"122","nm_titulo_placa":"Roda dos Expostos","dc_enunciado_placa":"De 1825 a 1950 funcionou aqui, junto aos muros da Santa Casa de Misericórdia, uma roda onde eram deixadas crianças cujas famílias não as podiam criar. Por ela passaram 4.580 crianças","nm_endereco_placa":"R. Dona Veridiana, 298","nm_local_placa":"Muro da Santa Casa","dt_carga":"2026-04-17Z"}},{"type":"Feature","geometry":{"type":"Point","coordinates":[-46.63311,-23.54220002]},"properties":{"cd_identificador":"125","nm_titulo_placa":"Sítio Arqueológico Florêncio de Abreu","dc_enunciado_placa":"Escavado em 1992, continha em sua maioria peças do século 19, como louças inglesas, francesas e objetos do cotidiano da casa do Dr. Eulálio da Costa Carvalho, construída em 1892. Posteriormente, o imóvel sediou o Laboratório Farmacêutico do Estad","nm_endereco_placa":"R. Florêncio de Abreu, 217, 223","dt_carga":"2026-04-17Z"}},{"type":"Feature","geometry":{"type":"Point","coordinates":[-46.65240047,-23.54886481]},"properties":{"cd_identificador":"126","nm_titulo_placa":"Sítio Arqueológico Mackenzie","dc_enunciado_placa":"Escavado em 2004 para as obras do metrô, dele foram retiradas peças do final do século 19 e início do 20, de construções que funcionaram como residências de funcionários e dormitórios para as alunas do colégio","nm_endereco_placa":"R. da Consolação c/ R. Piauí","nm_local_placa":"Estação Higienópolis-Mackenzie","dt_carga":"2026-04-17Z"}},{"type":"Feature","geometry":{"type":"Point","coordinates":[-46.6381,-23.54407002]},"properties":{"cd_identificador":"129","nm_titulo_placa":"Sítio Arqueológico Praça das Artes","dc_enunciado_placa":"Escavado em 2009, possui em sua maioria peças do século 19, como garrafas, panelas de barro, louça fina e objetos do cotidiano","nm_endereco_placa":"R. Conselheiro Crispiniano, 354","nm_local_placa":"Lateral Praça das Artes","dt_carga":"2026-04-17Z"}},{"type":"Feature","geometry":{"type":"Point","coordinates":[-46.63755366,-23.53876608]},"properties":{"cd_identificador":"130","nm_titulo_placa":"Sítio Arqueológico Quadra 090","dc_enunciado_placa":"Escavado em 2009, durante a construção do Centro Paula Souza, continha mais de duas mil peças arqueológicas, dentre elas garrafas, panelas de barro e louças finas que contam a história do cotidiano urbano no fim do século XIX","nm_endereco_placa":"R. dos Andradas, 140","nm_local_placa":"Centro Paula Souza","dt_carga":"2026-04-17Z"}},{"type":"Feature","geometry":{"type":"Point","coordinates":[-46.63409,-23.53939002]},"properties":{"cd_identificador":"132","nm_titulo_placa":"Sítio Arqueológico Senador Queiroz","dc_enunciado_placa":"Escavado em 1995, possui em sua maioria peças do século 19, como garrafas, panelas de barro, louça fina e objetos do cotidiano","nm_endereco_placa":"Av. Senador Queirós, 635, 649, 663, 671, 675","nm_local_placa":"Fachada do imóvel","dt_carga":"2026-04-17Z"}},{"type":"Feature","geometry":{"type":"Point","coordinates":[-46.64603,-23.54676002]},"properties":{"cd_identificador":"138","nm_titulo_placa":"Banda Redonda","dc_enunciado_placa":"A banda carnavalesca fundada pelo dramaturgo Plínio Marcos realiza a abertura da semana do Carnaval desde 1974 aqui, onde ficava o Bar Redondo, reduto da intelectualidade boêmia dos anos 1960 e 1970","nm_endereco_placa":"Av. Ipiranga, 81","nm_local_placa":"Condomínio Edifício Constância","dt_carga":"2026-04-17Z"}},{"type":"Feature","geometry":{"type":"Point","coordinates":[-46.65165,-23.55182002]},"properties":{"cd_identificador":"139","nm_titulo_placa":"Studio SP","dc_enunciado_placa":"A casa de shows, um ícone do chamado Baixo Augusta, funcionou aqui a partir de 2008 até encerrar suas atividades, em 2013. Seu palco lançou e projetou grande parte dos artistas da nova música brasileira","nm_endereco_placa":"R. Augusta, 591","nm_local_placa":"Fachada do imóvel","dt_carga":"2026-04-17Z"}},{"type":"Feature","geometry":{"type":"Point","coordinates":[-46.6677,-23.56408002]},"properties":{"cd_identificador":"140","nm_titulo_placa":"Rose Bom Bom","dc_enunciado_placa":"A danceteria reuniu, de 1983 a 1990, diversos grupos ao som de rock nacional, New Wave, Synthpop, Punk e, mais tarde, Acid House. Logo antes de fechar a pista, servia café da manhã para os presentes","nm_endereco_placa":"R. Oscar Freire, 720","nm_local_placa":"Fachada \"Pátio Oscar Freire\"","dt_carga":"2026-04-17Z"}},{"type":"Feature","geometry":{"type":"Point","coordinates":[-46.66686,-23.54982002]},"properties":{"cd_identificador":"142","nm_titulo_placa":"Asilo dos Expostos","dc_enunciado_placa":"A Santa Casa acolheu aqui, a partir de 1896, bebês abandonados na Roda dos Expostos, órfãos e crianças recolhidas. Mais tarde, o prédio abrigou instituições de saúde e educação para menores, sendo um marco da assistência à criança","nm_endereco_placa":"R. Angatuba, 756","nm_local_placa":"Muro ao lado do portão de acesso","dt_carga":"2026-04-17Z"}},{"type":"Feature","geometry":{"type":"Point","coordinates":[-46.63855,-23.52975002]},"properties":{"cd_identificador":"144","nm_titulo_placa":"Primeira Sinagoga de São Paulo","dc_enunciado_placa":"A sinagoga Kehilat Israel, primeira e célula-mater de outras instituições judaicas da cidade, foi inaugurada aqui em 1912, num pequeno imóvel. Desde 2017 abriga o Memorial do Holocausto","nm_endereco_placa":"R. da Graça, 160","nm_local_placa":"Fachada do imóvel","dt_carga":"2026-04-17Z"}},{"type":"Feature","geometry":{"type":"Point","coordinates":[-46.6122,-23.55683002]},"properties":{"cd_identificador":"146","nm_titulo_placa":"Vila Operária da Antártica","dc_enunciado_placa":"A vila foi construída neste local no final do século 19. Era destinada aos operários da Companhia Antarctica Paulista, desativada em 1995","nm_endereco_placa":"R. Coronel Joao Dente, 231","nm_local_placa":"Muro da casa remanescente","dt_carga":"2026-04-17Z"}},{"type":"Feature","geometry":{"type":"Point","coordinates":[-46.63867233,-23.54342537]},"properties":{"cd_identificador":"147","nm_titulo_placa":"Palhaço Piolin","dc_enunciado_placa":"Abelardo Pinto \"Piolin\" (1897-1973) já era palhaço conhecido quando ergueu seu circo neste largo em 1925. Os modernistas, que o viam como genuíno artista popular, imortalizaram sua história em textos","nm_endereco_placa":"Av. São João, 473","nm_local_placa":"Edifício Olido","dt_carga":"2026-04-17Z"}},{"type":"Feature","geometry":{"type":"Point","coordinates":[-46.64122,-23.56240002]},"properties":{"cd_identificador":"148","nm_titulo_placa":"Vila Itororó","dc_enunciado_placa":"Erguida aqui durante as décadas de 1910 e 1920, reúne experiências construtivas com o reuso de materiais de demolição, como do antigo Teatro São José, e uma história do morar coletivo de aluguel","nm_endereco_placa":"R. Pedroso, 238","nm_local_placa":"Fachada do imóvel","dt_carga":"2026-04-17Z"}},{"type":"Feature","geometry":{"type":"Point","coordinates":[-46.63569898,-23.54768393]},"properties":{"cd_identificador":"150","nm_titulo_placa":"Quitandeiras","dc_enunciado_placa":"Aqui se estabeleciam as quitandeiras, geralmente mulheres escravizadas ou libertas que ganhavam a vida com o comércio, especialmente de alimentos. Anteriormente chamada de Rua do Cotovelo, por seu formato angular, recebeu o nome atual no século 19","nm_endereco_placa":"R. da Quitanda, 144","dt_carga":"2026-04-17Z"}},{"type":"Feature","geometry":{"type":"Point","coordinates":[-46.64035606,-23.54476565]},"properties":{"cd_identificador":"152","nm_titulo_placa":"Flávio de Carvalho","dc_enunciado_placa":"Arquiteto e artista plástico (1899-1973), um dos pioneiros da performance no país, impactou a sociedade paulistana ao desfilar nesta rua seu traje tropical, com saia e blusa, em 18 de outubro de 1956","nm_endereco_placa":"R. Barão de Itapetininga, 140","nm_local_placa":"Condomínio Ed. Rio Branco","dt_carga":"2026-04-17Z"}},{"type":"Feature","geometry":{"type":"Point","coordinates":[-46.63291,-23.54980002]},"properties":{"cd_identificador":"154","nm_titulo_placa":"Beco das Minas","dc_enunciado_placa":"Beco conhecido no século 19 pelas quitandeiras, na maioria mulheres escravizadas, forras e pobres da nação Mina, que aqui vendiam guloseimas como formigas içá torradas e hortaliças, toucinho, fumo","nm_endereco_placa":"R. Irmã Simpliciana, 34 c/ R. Venceslau Brás","nm_local_placa":"Fachada do imóvel","dt_carga":"2026-04-17Z"}},{"type":"Feature","geometry":{"type":"Point","coordinates":[-46.6660637,-23.5579658]},"properties":{"cd_identificador":"155","nm_titulo_placa":"Massivo","dc_enunciado_placa":"Clube de música eletrônica precursor da cena LGBT+, do culto aos DJs e da \"almôndega\", dança de grupo de pessoas coladas umas nas outras; sediado aqui, foi lugar de liberdade sexual e musical entre 1991 e 1996","nm_endereco_placa":"Al. Itu, 1548","dt_carga":"2026-04-17Z"}},{"type":"Feature","geometry":{"type":"Point","coordinates":[-46.64295,-23.55452002]},"properties":{"cd_identificador":"157","nm_titulo_placa":"Sebastiana de Mello Freire","dc_enunciado_placa":"Conhecida como Dona Yayá (1887-1961), viveu aqui desde 1920. Aos 32 anos foi diagnosticada como portadora de transtornos mentais, sendo a casa depois adaptada para servir de sanatório particular","nm_endereco_placa":"R. Maj. Diogo, 353","nm_local_placa":"Casa de Dona Yayá - Muro CPC USP","dt_carga":"2026-04-17Z"}},{"type":"Feature","geometry":{"type":"Point","coordinates":[-46.63627207,-23.54666793]},"properties":{"cd_identificador":"158","nm_titulo_placa":"Edifício Sampaio Moreira","dc_enunciado_placa":"Concluído entre 1926 e 1927, é considerado um dos primeiros arranha-céus paulistanos. Foi o prédio mais alto da cidade até a inauguração do Edifício Martinelli, ainda em obras, em 1929","nm_endereco_placa":"R. Libero Badaró, 346","nm_local_placa":"Edifício Sampaio Moreira","dt_carga":"2026-04-17Z"}},{"type":"Feature","geometry":{"type":"Point","coordinates":[-46.65907,-23.56910002]},"properties":{"cd_identificador":"160","nm_titulo_placa":"Up & Down","dc_enunciado_placa":"Danceteria inaugurada aqui em junho de 1987, marcou a cena noturna da década de 1980 por sete anos com shows de luzes ao som de new age, flash house e EBM","nm_endereco_placa":"R. Pamplona, 1418","nm_local_placa":"Fachada do imóvel","dt_carga":"2026-04-17Z"}},{"type":"Feature","geometry":{"type":"Point","coordinates":[-46.63326,-23.54727002]},"properties":{"cd_identificador":"162","nm_titulo_placa":"Boa Vista","dc_enunciado_placa":"Desta rua, denominada Boa Vista desde 1711, se podia ver por completo, as atuais zonas norte e leste, da Várzea do Carmo até as encostas da Serra da Cantareira","nm_endereco_placa":"R. Boa Vista, 62","nm_local_placa":"Mureta do Viaduto","dt_carga":"2026-04-17Z"}},{"type":"Feature","geometry":{"type":"Point","coordinates":[-46.63222,-23.54859002]},"properties":{"cd_identificador":"163","nm_titulo_placa":"Marquesa de Santos","dc_enunciado_placa":"Domitila de Castro Canto e Melo (1797-1867) adquiriu este imóvel em 1834 e o transformou em uma das residências mais nobres da cidade, onde viveu até o fim de sua vida","nm_endereco_placa":"R. Roberto Símonsen, 136","nm_local_placa":"Museu da Cidade","dt_carga":"2026-04-17Z"}},{"type":"Feature","geometry":{"type":"Point","coordinates":[-46.65199845,-23.54559702]},"properties":{"cd_identificador":"164","nm_titulo_placa":"Maria Antônia da Silva Ramos","dc_enunciado_placa":"Dona de uma chácara na região, Maria Antônia (1815-1902) vendeu, em 1879, parte de suas terras à Igreja Presbiteriana para a construção do prédio da Escola Americana, um dos empreendimentos que originaram Higienópolis","nm_endereco_placa":"R. Maria Antônia, 403","nm_local_placa":"Muro do Mackenzie","dt_carga":"2026-04-17Z"}},{"type":"Feature","geometry":{"type":"Point","coordinates":[-46.64693,-23.55972002]},"properties":{"cd_identificador":"165","nm_titulo_placa":"Teatro Ruth Escobar","dc_enunciado_placa":"Fundado em 1963, leva o nome da atriz que o construiu. Foi espaço importante na luta feminista e contra a ditadura. Em 1968, o Comando de Caça aos Comunistas atacou atores que encenavam Roda Viva aqui","nm_endereco_placa":"R. dos Ingleses, 209","nm_local_placa":"Fachada do imóvel","dt_carga":"2026-04-17Z"}},{"type":"Feature","geometry":{"type":"Point","coordinates":[-46.61901,-23.52469002]},"properties":{"cd_identificador":"167","nm_titulo_placa":"Estrela do Pari","dc_enunciado_placa":"Fundado em 1º de janeiro de 1919, o clube centenário se destacou no futebol de várzea paulistano, ficando conhecido como o “Glorioso Tigre do Canindé”","nm_endereco_placa":"R. Pacoal Ranieri, 69","nm_local_placa":"Muro do imóvel","dt_carga":"2026-04-17Z"}},{"type":"Feature","geometry":{"type":"Point","coordinates":[-46.63438,-23.55434002]},"properties":{"cd_identificador":"168","nm_titulo_placa":"Paulistano da Glória","dc_enunciado_placa":"Fundado por Augusta Geralda, mãe do sambista Geraldo Filme, como uma associação de domésticas, o cordão carnavalesco funcionou aqui dos anos 1940 a 1980, transformado em escola de samba e salão de baile","nm_endereco_placa":"R. da Glória, 132","nm_local_placa":"Pilar","dt_carga":"2026-04-17Z"}},{"type":"Feature","geometry":{"type":"Point","coordinates":[-46.64608,-23.52654002]},"properties":{"cd_identificador":"171","nm_titulo_placa":"Radar Tantã","dc_enunciado_placa":"Inaugurada aqui em 1984, em parte da antiga fábrica da Ford, foi precursora das casas noturnas que unem vários espaços de entretenimento. Em menos de um ano de sua abertura, levou jovens de classe média ao Bom Retiro","nm_endereco_placa":"R. Solon, 1069","dt_carga":"2026-04-17Z"}},{"type":"Feature","geometry":{"type":"Point","coordinates":[-46.64989,-23.55647002]},"properties":{"cd_identificador":"173","nm_titulo_placa":"Cordão Carnavalesco Vae-Vae","dc_enunciado_placa":"Livinho e Benedito fundaram a Vai-Vai aqui, na várzea do Saracura, em 1928, onde jogava o Cai-Cai. Animavam o futebol com música mas, arruaceiros, eram chamados \"turma do Vae-Vae\", de \"vai embora\"","nm_endereco_placa":"R. Rocha, 40 c/ Av. Nove de Julho","nm_local_placa":"Fachada do imóvel","dt_carga":"2026-04-17Z"}},{"type":"Feature","geometry":{"type":"Point","coordinates":[-46.65450783,-23.53702282]},"properties":{"cd_identificador":"176","nm_titulo_placa":"Maria Angélica de Sousa Queirós","dc_enunciado_placa":"Nesta esquina ficava a casa onde morava uma das fundadoras de Higienópolis, Angélica (1842-1929). As ruas que levam seu nome e o de seu marido, Francisco de Barros, foram abertas após o loteamento de sua chácara","nm_endereco_placa":"Av. Angélica, 546 c/ Al. Barros","dt_carga":"2026-04-17Z"}},{"type":"Feature","geometry":{"type":"Point","coordinates":[-46.65081,-23.56206002]},"properties":{"cd_identificador":"177","nm_titulo_placa":"Grota do Bexiga","dc_enunciado_placa":"Nas encostas desta grota nasce o córrego Saracura Pequeno. Após percorrer o bairro até a praça 14 Bis, se junta ao córrego Saracura, canalizado em 1935 e hoje sob a avenida Nove de Julho","nm_endereco_placa":"R. Rocha c/ R. Dr. Seng","nm_local_placa":"Fachada do imóvel","dt_carga":"2026-04-17Z"}},{"type":"Feature","geometry":{"type":"Point","coordinates":[-46.65336061,-23.55248536]},"properties":{"cd_identificador":"178","nm_titulo_placa":"Nova Babilônia","dc_enunciado_placa":"Nascida como boate Big Valley em 1966, tornou-se boate Nova Babilônia nos anos 1980, ficando conhecida pela prostituição, característica da rua Augusta à época, até os anos 2010, quando fechou","nm_endereco_placa":"R. Augusta, 781","dt_carga":"2026-04-17Z"}},{"type":"Feature","geometry":{"type":"Point","coordinates":[-46.6196216,-23.54693052]},"properties":{"cd_identificador":"180","nm_titulo_placa":"Urna funerária Piratininga","dc_enunciado_placa":"Neste local, em 1907, durante obras realizadas nesta rua, foi identificada uma urna funerária pré-colonial, forma como os indígenas enterravam seus mortos","nm_endereco_placa":"R. Piratininga, 500","nm_local_placa":"Fachada do imóvel","dt_carga":"2026-04-17Z"}},{"type":"Feature","geometry":{"type":"Point","coordinates":[-46.6533,-23.55246002]},"properties":{"cd_identificador":"182","nm_titulo_placa":"Balneário","dc_enunciado_placa":"O estabelecimento acompanhou a dinâmica da Augusta nos anos 1980 e 1990 como “sauna for men” e “american bar”, até que a rua passou a receber mais jovens em baladas e sofreu um boom imobiliário","nm_endereco_placa":"R. Augusta, 783","nm_local_placa":"Fachada do imóvel","dt_carga":"2026-04-17Z"}},{"type":"Feature","geometry":{"type":"Point","coordinates":[-46.64149,-23.53429002]},"properties":{"cd_identificador":"184","nm_titulo_placa":"Antiga Rodoviária","dc_enunciado_placa":"O primeiro grande terminal da cidade foi inaugurado aqui em 1961, com uma extravagante cobertura colorida. Além de passageiros, atraia muitas pessoas para assistir jogos de futebol em sua TV a cores","nm_endereco_placa":"Pc. Júlio Prestes, S/N","nm_local_placa":"Muro","dt_carga":"2026-04-17Z"}},{"type":"Feature","geometry":{"type":"Point","coordinates":[-46.64704,-23.55348002]},"properties":{"cd_identificador":"189","nm_titulo_placa":"Boate Igrejinha","dc_enunciado_placa":"Referência para a MPB na década de 1970, recebeu a última temporada de shows de Maysa. Após fechar em 1977, abrigou o Café Soçaite, o Boteco do Samba e, desde 2017, o Teatro do Incêndio","nm_endereco_placa":"R. Santo Antonio, 989, 997","nm_local_placa":"Lateral do Teatro Incêndio","dt_carga":"2026-04-17Z"}},{"type":"Feature","geometry":{"type":"Point","coordinates":[-46.65818,-23.52981002]},"properties":{"cd_identificador":"190","nm_titulo_placa":"Salão São Paulo Chic","dc_enunciado_placa":"Criado aqui na “rua do samba” em 1968, perto do Largo da Banana, marco zero do samba paulistano, sediou até os anos 1980 encontros de sambistas e bailes black. Em 1996 reabriu como Blue Space, espaço LGBTQIA+","nm_endereco_placa":"R. Brigadeiro Galvão, 723 c/  R. João de Barros","dt_carga":"2026-04-17Z"}},{"type":"Feature","geometry":{"type":"Point","coordinates":[-46.65221688,-23.54513165]},"properties":{"cd_identificador":"191","nm_titulo_placa":"Veridiana da Silva Prado","dc_enunciado_placa":"Uma das fundadoras deste bairro, dona Veridiana (1825-1910) estabeleceu aqui o palacete de sua chácara após sua separação, rara no século 19. Foi um notável salão cultural da elite","nm_endereco_placa":"Av. Higienópolis, 18","nm_local_placa":"Esquina com a Rua Dona Veridiana (Iate Clube de Santos)","dt_carga":"2026-04-17Z"}},{"type":"Feature","geometry":{"type":"Point","coordinates":[-46.63486276,-23.5485675]},"properties":{"cd_identificador":"192","nm_titulo_placa":"Rua Direita","dc_enunciado_placa":"Aberta ainda no século 16, é uma das mais antigas da cidade. Era assim conhecida por sua localização à direita das igrejas de Santo Antônio, na atual Praça do Patriarca, e da Misericórdia, que ficava neste local","nm_endereco_placa":"R. Direita, 132","dt_carga":"2026-04-17Z"}},{"type":"Feature","geometry":{"type":"Point","coordinates":[-46.64157372,-23.55204924]},"properties":{"cd_identificador":"195","nm_titulo_placa":"Vila Barros / Edifício Japurá","dc_enunciado_placa":"Era o populoso conjunto formado pelos cortiços Geladeira, Pombal, Vaticano e Navio Parado, demolido em 1948, durante o processo de “higienização” do centro, para erguer no vale do Bexiga o edifício Japurá, pioneiro da habitação moderna coletiv","nm_endereco_placa":"R. Japurá, 109","dt_carga":"2026-04-17Z"}},{"type":"Feature","geometry":{"type":"Point","coordinates":[-46.63996403,-23.53206622]},"properties":{"cd_identificador":"196","nm_titulo_placa":"Antiga Zona do Meretrício","dc_enunciado_placa":"De 1940 a 1953, a prostituição foi oficialmente confinada aqui, quando mais de 1000 mulheres trabalharam nas ruas ao longo deste muro. O nome da antiga rua Itaboca foi alterado para ocultar esse fato em 1958","nm_endereco_placa":"R. Professor Cesare Lombroso, 1","nm_local_placa":"Muro de pedra da ferrovia","dt_carga":"2026-04-17Z"}},{"type":"Feature","geometry":{"type":"Point","coordinates":[-46.64064962,-23.55155197]},"properties":{"cd_identificador":"197","nm_titulo_placa":"Caminho de Santo Amaro","dc_enunciado_placa":"Aberto no século 16 para ligar a Vila de São Paulo e o aldeamento indígena chamado Ibirapuera, o caminho deu origem a esta rua e a parte da Avenida Brigadeiro Luís Antônio","nm_endereco_placa":"R. Santo Amaro, 216","dt_carga":"2026-04-17Z"}},{"type":"Feature","geometry":{"type":"Point","coordinates":[-46.64072702,-23.56089789]},"properties":{"cd_identificador":"198","nm_titulo_placa":"Flávio Império","dc_enunciado_placa":"O arquiteto (1935-1985) viveu nesta casa-oficina a partir de 1978; as bananeiras do quintal foram tema de suas pinturas. Renovou a cenografia nacional e atuou com o olhar voltado para o povo brasileiro","nm_endereco_placa":"R. Monsenhor Passalacqua, 47","dt_carga":"2026-04-17Z"}},{"type":"Feature","geometry":{"type":"Point","coordinates":[-46.60935224,-23.55833264]},"properties":{"cd_identificador":"201","nm_titulo_placa":"Urna funerária Mooca","dc_enunciado_placa":"Neste local, em 1907, foi identificada uma urna funerária pré-colonial, forma como os indígenas enterravam seus mortos","nm_endereco_placa":"Av. Presidente Wilson, 483","nm_local_placa":"Lote da Antiga Fábrica da Antártica","dt_carga":"2026-04-17Z"}},{"type":"Feature","geometry":{"type":"Point","coordinates":[-46.63930119,-23.54795248]},"properties":{"cd_identificador":"203","nm_titulo_placa":"Caminho das Tropas","dc_enunciado_placa":"Neste ponto começava a conexão da cidade com o antigo caminho que passava por Sorocaba, local de comercialização dos animais que partiam do Sul em direção às minas nos séculos 18 e 19","nm_endereco_placa":"Largo da Memória, S/N","nm_local_placa":"Metrô Anhangabaú","dt_carga":"2026-04-17Z"}},{"type":"Feature","geometry":{"type":"Point","coordinates":[-46.64104032,-23.54012381]},"properties":{"cd_identificador":"204","nm_titulo_placa":"Adoniran Barbosa","dc_enunciado_placa":"O cantor e compositor (1910-1982) viveu aqui entre 1949 e 1962, de onde avistava a \"maloca\" de Matogrosso e Joca, personagens da canção Saudosa Maloca","nm_endereco_placa":"R. Aurora, 500","nm_local_placa":"Condomínio Edifício Santa Inez","dt_carga":"2026-04-17Z"}},{"type":"Feature","geometry":{"type":"Point","coordinates":[-46.6073174,-23.55622502]},"properties":{"cd_identificador":"205","nm_titulo_placa":"Companhia União de Refinadores","dc_enunciado_placa":"Funcionou aqui a fábrica fundada em 1910 pelos imigrantes italianos Giuseppe e Nicola Carbone, que convenceram pequenos refinadores de açúcar do Estado a se unirem em uma só empresa","nm_endereco_placa":"R. Borges de Figueiredo, 137","dt_carga":"2026-04-17Z"}},{"type":"Feature","geometry":{"type":"Point","coordinates":[-46.6415407,-23.54379672]},"properties":{"cd_identificador":"209","nm_titulo_placa":"MMDC","dc_enunciado_placa":"Daqui partiram os disparos que alvejaram em 23 de maio de 1932 os jovens Miragaia, Martins, Dráusio e Camargo durante manifestação. Suas iniciais designaram a sociedade interessada na derrubada de Vargas","nm_endereco_placa":"R. Barão de Itapetininga, 296, 298","dt_carga":"2026-04-17Z"}},{"type":"Feature","geometry":{"type":"Point","coordinates":[-46.6059116,-23.55317122]},"properties":{"cd_identificador":"213","nm_titulo_placa":"Creche Condessa Marina Crespi","dc_enunciado_placa":"O antigo edifício de linhas Art Déco, construído em 1936 e demolido em 2010, atendia aos filhos dos operários do complexo industrial Cotonifício Crespi, sendo parte da política fabril do século 20","nm_endereco_placa":"R. João Antonio de Oliveira, 59","dt_carga":"2026-04-17Z"}},{"type":"Feature","geometry":{"type":"Point","coordinates":[-46.6399257,-23.53621702]},"properties":{"cd_identificador":"217","nm_titulo_placa":"Fábrica de Tranquillo Giannini","dc_enunciado_placa":"Produziu, neste local, instrumentos musicais e cordas de 1925 até 1949. A empresa, legado do artesão italiano Tranquillo Giannini, funcionou na cidade até 1990, quando se mudou para a cidade de Salto no interior paulista","nm_endereco_placa":"R. General Osório, 126","dt_carga":"2026-04-17Z"}},{"type":"Feature","geometry":{"type":"Point","coordinates":[-46.62574032,-23.54755335]},"properties":{"cd_identificador":"219","nm_titulo_placa":"Figueira da Marquesa","dc_enunciado_placa":"Na chácara da Marquesa de Santos, que era nesta região, ficava a grande árvore que serviu como marco informal de entrada na cidade durante o século 19. Foi retirada no começo do século 20","nm_endereco_placa":"Av. Rangel Pestana, 863","dt_carga":"2026-04-17Z"}},{"type":"Feature","geometry":{"type":"Point","coordinates":[-46.6459383,-23.55094792]},"properties":{"cd_identificador":"222","nm_titulo_placa":"Ferro's Bar","dc_enunciado_placa":"Ponto de encontro de mulheres entre as décadas de 1960 e 1990, foi palco do levante do Grupo Ação Lésbica Feminista em 1983 pelo direito de continuar a vender sua publicação Chana com Chana","nm_endereco_placa":"R. Martinho Prado, 127","nm_local_placa":"Edifício Vesper","dt_carga":"2026-04-17Z"}},{"type":"Feature","geometry":{"type":"Point","coordinates":[-46.6327137,-23.54469152]},"properties":{"cd_identificador":"224","nm_titulo_placa":"Luiz Gama","dc_enunciado_placa":"O abolicionista autodidata (1830-1882) viveu e teve seu primeiro escritório neste endereço, tendo libertado judicialmente mais de 500 escravizados. Em 2015, foi reconhecido advogado pela Ordem nacional","nm_endereco_placa":"R. 25 de Março, 595","dt_carga":"2026-04-17Z"}},{"type":"Feature","geometry":{"type":"Point","coordinates":[-46.6531324,-23.56401862]},"properties":{"cd_identificador":"225","nm_titulo_placa":"Morte de Márcia Prado","dc_enunciado_placa":"Em janeiro de 2009, Márcia foi atropelada aqui, por um motorista de ônibus, antes de haver ciclovias na Paulista. Sua morte trouxe visibilidade para o cicloativismo","nm_endereco_placa":"Av. Paulista, 1230","nm_local_placa":"Shopping Cidade São Paulo","dt_carga":"2026-04-17Z"}},{"type":"Feature","geometry":{"type":"Point","coordinates":[-46.6377689,-23.56278832]},"properties":{"cd_identificador":"227","nm_titulo_placa":"Ramos de Azevedo","dc_enunciado_placa":"Renomado arquiteto paulista (1851-1928), destacou-se no desenvolvimento de obras públicas que se tornaram referência, como o Teatro Municipal. Construiu esta casa, onde morou, e outras na região","nm_endereco_placa":"R. Pirapitingui, 111","dt_carga":"2026-04-17Z"}},{"type":"Feature","geometry":{"type":"Point","coordinates":[-46.6689008,-23.53666472]},"properties":{"cd_identificador":"228","nm_titulo_placa":"Residência das professoras americanas","dc_enunciado_placa":"Este conjunto foi construído para a moradia das jovens professoras do Colégio Batista Brasileiro, instalado nesta rua desde 1923, que vinham da colônia norte-americana de Santa Bárbara D’Oeste","nm_endereco_placa":"R. Dr. Homem de Melo, 438","dt_carga":"2026-04-17Z"}},{"type":"Feature","geometry":{"type":"Point","coordinates":[-46.65874683,-23.55971719]},"properties":{"cd_identificador":"230","nm_titulo_placa":"Casarões da Paulista","dc_enunciado_placa":"Junto com o Liceu Pasteur, a Escola Rodrigues Alves e a Casa das Rosas, esse é um dos remanescentes da primeira ocupação da avenida, aberta no final do século 19","nm_endereco_placa":"Av. Paulista, 867","dt_carga":"2026-04-17Z"}},{"type":"Feature","geometry":{"type":"Point","coordinates":[-46.6451691,-23.52588422]},"properties":{"cd_identificador":"231","nm_titulo_placa":"Edifício União","dc_enunciado_placa":"Abandonado ainda em fase de construção, foi ocupado nos anos 1980. Em 2005, seus moradores entraram com pedido de usucapião coletivo, concedido dez anos depois, pela primeira vez para a posse de um prédio","nm_endereco_placa":"R. Solon, 934","dt_carga":"2026-04-17Z"}},{"type":"Feature","geometry":{"type":"Point","coordinates":[-46.6623373,-23.54915542]},"properties":{"cd_identificador":"233","nm_titulo_placa":"Exposição de uma Casa Modernista na Rua Itápolis","dc_enunciado_placa":"Em 1930 a exposição desta casa projetada por Gregori Warchavchik foi a primeira mostra dos princípios da arquitetura modernista. Recebeu mais de 20 mil pessoas, como Mário de Andrade e Tarsila do Amaral","nm_endereco_placa":"R. Itápolis, 961","dt_carga":"2026-04-17Z"}},{"type":"Feature","geometry":{"type":"Point","coordinates":[-46.6378553,-23.54229682]},"properties":{"cd_identificador":"239","nm_titulo_placa":"Edifício Wilton Paes de Almeida","dc_enunciado_placa":"A torre transparente projetada em 1961 pelo arquiteto Roger Zmekhol sediou a Cia. Com. de Vidros do Brasil e depois, órgãos públicos até 2009. Estava ocupada por moradias sociais ao desabar após incêndio em 01/05/2018 deixando mortos e desaparecido","nm_endereco_placa":"Av. Rio Branco, 10","dt_carga":"2026-04-17Z"}},{"type":"Feature","geometry":{"type":"Point","coordinates":[-46.63625056,-23.5460276]},"properties":{"cd_identificador":"241","nm_titulo_placa":"Plano Bouvard","dc_enunciado_placa":"Esta escadaria fazia parte do parque de Joseph Bouvard no Anhangabaú, projetado em 1911, obra de modernização da cidade à imagem de Paris, ao gosto da elite cafeeira","nm_endereco_placa":"R. Libero Badaró, 367","nm_local_placa":"Lateral escadaria","dt_carga":"2026-04-17Z"}},{"type":"Feature","geometry":{"type":"Point","coordinates":[-46.63125412,-23.55034222]},"properties":{"cd_identificador":"250","nm_titulo_placa":"Bordas do Triângulo Histórico de SP (3)","dc_enunciado_placa":"Aqui é um dos vértices do território colonial pioneiro delimitado pelo Mosteiro de São Bento, Igreja da Ordem Primeira de São Francisco e Igreja da Ordem Terceira do Carmo, área que deu origem ao Centro Histórico da cidade","nm_endereco_placa":"Av. Rangel Pestana, 230","dt_carga":"2026-04-17Z"}},{"type":"Feature","geometry":{"type":"Point","coordinates":[-46.64880938,-23.55075169]},"properties":{"cd_identificador":"252","nm_titulo_placa":"Parque Augusta","dc_enunciado_placa":"Este parque foi criado a partir da mobilização popular nos anos 2010, quando a sociedade civil chegou a ocupar a área, levando a uma permuta com a construtora que garantiu todo o espaço para atividades de lazer","nm_endereco_placa":"R. Augusta 344 e 360","dt_carga":"2026-04-17Z"}},{"type":"Feature","geometry":{"type":"Point","coordinates":[-46.64663,-23.55729002]},"properties":{"cd_identificador":"253","nm_titulo_placa":"Festa da Achiropita","dc_enunciado_placa":"No entorno desta igreja acontece, em agosto, a tradicional festa em homenagem à padroeira do Bixiga, que celebra a culinária e cultura italiana. Surgida para apoiar a construção da igreja, hoje dá suporte às obras sociais da paróquia","nm_endereco_placa":"R. Treze de Maio, 478","dt_carga":"2026-04-17Z"}},{"type":"Feature","geometry":{"type":"Point","coordinates":[-46.64332,-23.55288002]},"properties":{"cd_identificador":"254","nm_titulo_placa":"Grupo Escolar Bella Vista","dc_enunciado_placa":"Aqui se doou em 1878 uma quadra da Chácara Bixiga para a construção do hospital da Santa Casa, que se fixou em outro local. Assim, em 1900, foi construída no terreno a 1ª escola-modelo do Estado, exemplo para outros Grupos Escolares da capital","nm_endereco_placa":"R. Major Diogo, 200","dt_carga":"2026-04-17Z"}},{"type":"Feature","geometry":{"type":"Point","coordinates":[-46.64554,-23.55788002]},"properties":{"cd_identificador":"256","nm_titulo_placa":"Cine Rex","dc_enunciado_placa":"Neste local funcionaram diversos espaços culturais: o cinema, nos anos 40, depois o Teatro Aquarius, nos anos 60, e por fim o Teatro Zaccaro, nos anos 80 e 90, palco do programa de TV Perdidos","nm_endereco_placa":"R. Rui Barbosa, 266 c/ R. Conselheiro Carrão","dt_carga":"2026-04-17Z"}},{"type":"Feature","geometry":{"type":"Point","coordinates":[-46.64494,-23.54170002]},"properties":{"cd_identificador":"260","nm_titulo_placa":"Cocheira Anglo-Franceza","dc_enunciado_placa":"Inaugurada aqui em 1893, abrigou o primeiro hospital veterinário da cidade, o Royal Derby, dedicado especialmente ao cuidado com cavalos, que também podiam ficar hospedados no local","nm_endereco_placa":"Largo do Arouche, 77","dt_carga":"2026-04-17Z"}},{"type":"Feature","geometry":{"type":"Point","coordinates":[-46.63737,-23.54527002]},"properties":{"cd_identificador":"261","nm_titulo_placa":"Edifício CBI-Esplanada","dc_enunciado_placa":"Projetado em 1944 pelo arquiteto Lucjan Korngold para a Companhia Brasileira de Investimentos, constitui um marco arquitetônico moderno que reconfigurou a paisagem do Vale do Anhangabaú no entorno do Viaduto do Chá e do Teatro Municipal","nm_endereco_placa":"R. Formosa, 367","dt_carga":"2026-04-17Z"}},{"type":"Feature","geometry":{"type":"Point","coordinates":[-46.65374,-23.53438002]},"properties":{"cd_identificador":"262","nm_titulo_placa":"Edifício Marina Mendes Margarido","dc_enunciado_placa":"Construído em 1927, o projeto de Júlio de Abreu Jr. é um dos primeiros edifícios modernos da cidade. À época, se destacou pela ausência de ornamentos e pela nova forma de morar, com banheiros e serviços na fachada e quartos de empregados na cober","nm_endereco_placa":"Av. Angélica, 172","dt_carga":"2026-04-17Z"}},{"type":"Feature","geometry":{"type":"Point","coordinates":[-46.64641,-23.55986002]},"properties":{"cd_identificador":"263","nm_titulo_placa":"Escadaria do Bixiga","dc_enunciado_placa":"Com 84 degraus e 16 metros de altura, esta escadaria foi construída em 1929 pelo prefeito Pires do Rio para ligar a porção aristocrática da Bela Vista – o Morro dos Ingleses – ao local popular de moradias e negócios – a rua Treze de Maio","nm_endereco_placa":"R. Treze de Maio, 752","dt_carga":"2026-04-17Z"}},{"type":"Feature","geometry":{"type":"Point","coordinates":[-46.63403,-23.54395002]},"properties":{"cd_identificador":"264","nm_titulo_placa":"Bordas do Triângulo Histórico de SP (1)","dc_enunciado_placa":"Aqui é um dos vértices do território colonial pioneiro delimitado pelo Mosteiro de São Bento, Igreja da Ordem Primeira de São Francisco e Igreja da Ordem Terceira do Carmo, área que deu origem ao Centro Histórico da cidade","nm_endereco_placa":"Largo de São Bento, S/N","dt_carga":"2026-04-17Z"}},{"type":"Feature","geometry":{"type":"Point","coordinates":[-46.63742,-23.54950002]},"properties":{"cd_identificador":"265","nm_titulo_placa":"Bordas do Triângulo Histórico de SP (2)","dc_enunciado_placa":"Aqui é um dos vértices do território colonial pioneiro delimitado pelo Mosteiro de São Bento, Igreja da Ordem Primeira de São Francisco e Igreja da Ordem Terceira do Carmo, área que deu origem ao Centro Histórico da cidade","nm_endereco_placa":"Largo São Francisco, S/N","dt_carga":"2026-04-17Z"}},{"type":"Feature","geometry":{"type":"Point","coordinates":[-46.63296442,-23.54901078]},"properties":{"cd_identificador":"266","nm_titulo_placa":"Edifício Rolim","dc_enunciado_placa":"No último andar deste prédio, construído em 1928, era a redação do jornal panfletário e irreverente “O Homem do Povo” fundado por Oswald de Andrade e Patrícia Galvão. Por conta das posições políticas a publicação foi fechada","nm_endereco_placa":"Pc. da Sé, 87","dt_carga":"2026-04-17Z"}},{"type":"Feature","geometry":{"type":"Point","coordinates":[-46.64064,-23.54590002]},"properties":{"cd_identificador":"267","nm_titulo_placa":"Livraria Jaraguá","dc_enunciado_placa":"Ficava aqui um reduto de artistas e intelectuais como Tarsila do Amaral e Caio Prado Jr., que se reuniam nos anos 1940 e 1950 no salão de chá desta livraria fundada por Roberto Meira e Alfredo Mesquita","nm_endereco_placa":"R. Marconi, 54","dt_carga":"2026-04-17Z"}},{"type":"Feature","geometry":{"type":"Point","coordinates":[-46.64259,-23.54637002]},"properties":{"cd_identificador":"268","nm_titulo_placa":"Cine Metrópole","dc_enunciado_placa":"Nos anos 1960, quando foi inaugurado, se reuniam aqui intelectuais e cinéfilos para assistir as estreias de filmes de sucesso mundial. Foi pioneiro na realização da sessão da meia-noite","nm_endereco_placa":"Av. São Luís, 187","nm_local_placa":"Galeira Metrópole","dt_carga":"2026-04-17Z"}},{"type":"Feature","geometry":{"type":"Point","coordinates":[-46.65288737,-23.56136917]},"properties":{"cd_identificador":"269","nm_titulo_placa":"Complexo Hospitalar Matarazzo","dc_enunciado_placa":"Funcionou aqui entre 1904 e 1993. Com o slogan “a saúde dos ricos para os pobres”, atendia primeiramente aos imigrantes italianos e seus descendentes com serviços de qualidade. Sua fundação está associada ao Conde Francisco Matarazzo","nm_endereco_placa":"Al. Rio Claro, 190","nm_local_placa":"Casa Bradesco","dt_carga":"2026-04-17Z"}},{"type":"Feature","geometry":{"type":"Point","coordinates":[-46.63194,-23.54960002]},"properties":{"cd_identificador":"270","nm_titulo_placa":"Edifício da Associação das Classes Laboriosas","dc_enunciado_placa":"Construído em 1909, abrigou a sede da Associação das Classes Laboriosas. Foi importante espaço de atividade operária e sindical no século 20, abrigando comícios, negociações durante greves, peças teatrais, entre outros","nm_endereco_placa":"R. Roberto Simonsen, 22","dt_carga":"2026-04-17Z"}},{"type":"Feature","geometry":{"type":"Point","coordinates":[-46.6434,-23.54565002]},"properties":{"cd_identificador":"271","nm_titulo_placa":"Piso Paulista","dc_enunciado_placa":"O piso paulista surgiu em um concurso cultural, em 1965. Sua criadora, Mirthes Bernardes, não imaginava que seu desenho se tornaria símbolo da cidade. Ela morreria em 2020, sem receber o devido","nm_endereco_placa":"Av. São Luís, 50","dt_carga":"2026-04-17Z"}},{"type":"Feature","geometry":{"type":"Point","coordinates":[-46.63846,-23.53892002]},"properties":{"cd_identificador":"272","nm_titulo_placa":"Casa Del Vecchio","dc_enunciado_placa":"Pioneira na fabricação de violões no Brasil, foi fundada em 1902 na rua do Riachuelo pelo luthier italiano Angelo Del Vecchio. Dezoito anos depois a empresa se mudou para este endereço, até fechar suas portas em 2022","nm_endereco_placa":"R. Aurora, 187","dt_carga":"2026-04-17Z"}},{"type":"Feature","geometry":{"type":"Point","coordinates":[-46.63573,-23.54700002]},"properties":{"cd_identificador":"275","nm_titulo_placa":"Cine São Bento","dc_enunciado_placa":"Foi inaugurado neste local em 1927, com uma sessão do clássico do cinema mudo “Tristeza de Satanás”, de D. W. Griffith. O espaço funcionou como exibidor oficial da Paramount na cidade até 1929 e em 1950 encerrou suas atividades","nm_endereco_placa":"R. São Bento, 241, 243 e 245","dt_carga":"2026-04-17Z"}},{"type":"Feature","geometry":{"type":"Point","coordinates":[-46.62991,-23.57581002]},"properties":{"cd_identificador":"278","nm_titulo_placa":"EMEBS Helen Keller","dc_enunciado_placa":"Esta Escola Municipal de Educação Bilíngue para Surdos foi criada em 1952, sendo a primeira da rede pública da cidade dedicada a alunos surdos. Referência nesta modalidade até hoje, o nome atual homenageia a ativista surda e cega norte-americana","nm_endereco_placa":"R. Pedra Azul, 314","dt_carga":"2026-04-17Z"}},{"type":"Feature","geometry":{"type":"Point","coordinates":[-46.64758,-23.55147002]},"properties":{"cd_identificador":"282","nm_titulo_placa":"Debaixo dessas escadas, uma cachoeira","dc_enunciado_placa":"O barulho d'água vem de uma galeria por onde passam águas reunidas na Avenida Paulista, que fluem entre as ruas Augusta e Frei Caneca e descem por aqui até alcançar o Córrego do Saracura, que passa ali embaixo, sob a Avenida 9 de Julho","nm_endereco_placa":"Escadaria entre R. Frei Caneca e R. Avanhandava","dt_carga":"2026-04-17Z"}},{"type":"Feature","geometry":{"type":"Point","coordinates":[-46.64965,-23.53073002]},"properties":{"cd_identificador":"283","nm_titulo_placa":"Nesse armazém, se dançou","dc_enunciado_placa":"Este galpão abrigou a primeira grande festa rave do Brasil, a “L&M Music\", no dia 6 de maio de 1993. Livre e inclusiva, esta noite contribuiu para democratizar, unir e estimular a cena paulistana de música eletrônica","nm_endereco_placa":"Al. Eduardo Prado, 474","dt_carga":"2026-04-17Z"}},{"type":"Feature","geometry":{"type":"Point","coordinates":[-46.63794,-23.53677002]},"properties":{"cd_identificador":"284","nm_titulo_placa":"O triunfo do “cinema cafajeste”","dc_enunciado_placa":"Nestas ruas, conhecidas como “Boca do Lixo”, dos anos 1960 aos 1980, surgiu um criativo cinema popular, que se descolava do que se considerava como bom gosto e os bons costumes da época. Seu sucesso se media nas grandes filas para as exibições","nm_endereco_placa":"R. do Triunfo, 155","dt_carga":"2026-04-17Z"}},{"type":"Feature","geometry":{"type":"Point","coordinates":[-46.66115,-23.56747002]},"properties":{"cd_identificador":"285","nm_titulo_placa":"Carlos Marighella","dc_enunciado_placa":"Este é o local em que foi morto numa emboscada o militante Carlos Marighella, em 1969, então líder da Ação Libertadora Nacional - ALN, que lutava contra a ditadura militar","nm_endereco_placa":"Al. Casa Branca, 815","dt_carga":"2026-04-17Z"}},{"type":"Feature","geometry":{"type":"Point","coordinates":[-46.62218,-23.54704002]},"properties":{"cd_identificador":"286","nm_titulo_placa":"Residência de José Martinez","dc_enunciado_placa":"Morava aqui o sapateiro espanhol, morto em 1917 durante a greve geral, considerada a maior mobilização operária da Primeira República. Sua morte, em 9 de julho daquele ano, é considerada símbolo da luta operária","nm_endereco_placa":"R. Caetano Pinto, 71","dt_carga":"2026-04-17Z"}},{"type":"Feature","geometry":{"type":"Point","coordinates":[-46.65088,-23.57915002]},"properties":{"cd_identificador":"287","nm_titulo_placa":"Operação Bandeirantes","dc_enunciado_placa":"Foi aqui, onde funcionou o DOI-CODI, um grande centro de tortura, desaparecimento e morte durante o período da ditadura militar no Brasil. Tombado desde 2014, este local é um importante lugar de memória para a educação em direitos humanos","nm_endereco_placa":"R. Tutóia, 921","dt_carga":"2026-04-17Z"}},{"type":"Feature","geometry":{"type":"Point","coordinates":[-46.65283,-23.56419002]},"properties":{"cd_identificador":"290","nm_titulo_placa":"Mansão Matarazzo","dc_enunciado_placa":"A casa da família foi erguida em 1896 e reformada várias vezes ao longo do século 20. Palco de inúmeras reuniões sociais da alta sociedade paulistana, foi demolida nos anos 90 em meio à disputa pela sua preservação, contestada por seus proprietá","nm_endereco_placa":"Av. Paulista, 1230","nm_local_placa":"Shopping Cidade São Paulo","dt_carga":"2026-04-17Z"}},{"type":"Feature","geometry":{"type":"Point","coordinates":[-46.62142,-23.54083002]},"properties":{"cd_identificador":"292","nm_titulo_placa":"Moinho Matarazzo","dc_enunciado_placa":"Uma das primeiras fábricas implantadas na cidade, o Moinho Matarazzo acompanhou o processo de industrialização da cidade","nm_endereco_placa":"R. do Bucolismo, 81","dt_carga":"2026-04-17Z"}},{"type":"Feature","geometry":{"type":"Point","coordinates":[-46.63572,-23.54205002]},"properties":{"cd_identificador":"296","nm_titulo_placa":"Edifício Mirante do Vale","dc_enunciado_placa":"Inicialmente chamado Palácio Zarzur e Kogan, também conhecido como Edifício Zarzur, foi considerado o mais alto da cidade e do país até o começo do século 21. Seu programa original incluía inúmeros escritórios e lojas comerciais","nm_endereco_placa":"R. Brigadeiro Tobias, 118","dt_carga":"2026-04-17Z"}},{"type":"Feature","geometry":{"type":"Point","coordinates":[-46.64434,-23.53757002]},"properties":{"cd_identificador":"297","nm_titulo_placa":"Pavilhão Modernista","dc_enunciado_placa":"Ponto de encontro e reduto do movimento modernista, foi idealizado pela mecenas Olívia Guedes Penteado. Era anexo à sua casa que, demolida em 1947, deu lugar a este edifício, originalmente um hotel","nm_endereco_placa":"Av. Duque de Caxias, 525","dt_carga":"2026-04-17Z"}},{"type":"Feature","geometry":{"type":"Point","coordinates":[-46.64281,-23.54459002]},"properties":{"cd_identificador":"299","nm_titulo_placa":"Edifício Esther","dc_enunciado_placa":"Objeto de concurso em 1935 vencido pelos arquitetos Álvaro Vital Brasil e Adhemar Marinho é um dos primeiros prédios da arquitetura moderna em São Paulo. Abrigou a sede do Instituto de Arquitetos do Brasil e o Clube dos Artistas","nm_endereco_placa":"Pc. da República, 64 ao 80","dt_carga":"2026-04-17Z"}},{"type":"Feature","geometry":{"type":"Point","coordinates":[-46.64363,-23.54535002]},"properties":{"cd_identificador":"300","nm_titulo_placa":"Edifício Itália","dc_enunciado_placa":"Projeto do arquiteto Franz Heep para a nova sede do Circolo Italiano, foi inaugurado em 1965. Contando com 46 pavimentos, é considerado um dos edifícios mais altos da cidade e um dos marcos da arquitetura moderna em São Paulo","nm_endereco_placa":"Av. São Luís, 50","dt_carga":"2026-04-17Z"}},{"type":"Feature","geometry":{"type":"Point","coordinates":[-46.63702,-23.54595002]},"properties":{"cd_identificador":"301","nm_titulo_placa":"Vale do Skate","dc_enunciado_placa":"O projeto do Vale de Rosa Kliass e Jorge Wilheim criou espaços que foram referência para o skate brasileiro desde os anos 1990. Após sua destruição em 2019, a mobilização dos skatistas levou à construção de um memorial, utilizando","nm_endereco_placa":"Vale do Anhangabaú","dt_carga":"2026-04-17Z"}},{"type":"Feature","geometry":{"type":"Point","coordinates":[-46.62901,-23.52050002]},"properties":{"cd_identificador":"302","nm_titulo_placa":"Associação Atlética São Paulo","dc_enunciado_placa":"A Associação Atlética São Paulo, fundada às margens do Rio Tietê, é um dos clubes pioneiros da cidade, tendo inaugurado uma das primeiras piscinas e ginásio coberto da cidade","nm_endereco_placa":"Pc. Bento de Camargo Barros, 162","dt_carga":"2026-04-17Z"}},{"type":"Feature","geometry":{"type":"Point","coordinates":[-46.61972,-23.52235002]},"properties":{"cd_identificador":"303","nm_titulo_placa":"Canindé e a Lusa","dc_enunciado_placa":"Desde 1956, com a mudança da Associação Portuguesa de Desportos, o Canindé é ponto de encontro da comunidade portuguesa na cidade","nm_endereco_placa":"R. Pascoal Ranieri, 33","dt_carga":"2026-04-17Z"}},{"type":"Feature","geometry":{"type":"Point","coordinates":[-46.63053406,-23.52143398]},"properties":{"cd_identificador":"304","nm_titulo_placa":"Clube de Regatas Tietê","dc_enunciado_placa":"De relação íntima com o rio, funcionou aqui um dos principais clubes da cidade no começo do século 20, que formou atletas como Maria Lenk e Maria Esther Bueno. Fechado em 2012, agora é um equipamento municipal","nm_endereco_placa":"Av. Santos Dumont, 843","nm_local_placa":"Fachada da portaria do Centro Esportivo Tietê voltada para a avenida Santos Dumont","dt_carga":"2026-04-17Z"}},{"type":"Feature","geometry":{"type":"Point","coordinates":[-46.61053,-23.53735002]},"properties":{"cd_identificador":"305","nm_titulo_placa":"Antiga sede das Indústrias Matarazzo","dc_enunciado_placa":"Um dos locais de administração das Indústrias Reunidas Francisco Matarazzo, este edifício, tombado, é testemunho da industrialização da cidade","nm_endereco_placa":"R. Joli, 273","dt_carga":"2026-04-17Z"}},{"type":"Feature","geometry":{"type":"Point","coordinates":[-46.63333,-23.54297002]},"properties":{"cd_identificador":"306","nm_titulo_placa":"A Salubridade e a Casa da Boia","dc_enunciado_placa":"Natural de Alepo (Síria), Rizkallah Jorge Tahan fundou em 1898 a empresa, que começou vendendo produtos de decoração em cobre e mais tarde se consagrou pela venda de materiais sanitários, impulsionada pelas condições de salubridade da cidade à é","nm_endereco_placa":"R. Florêncio de Abreu, 123","dt_carga":"2026-04-17Z"}},{"type":"Feature","geometry":{"type":"Point","coordinates":[-46.63138,-23.54057002]},"properties":{"cd_identificador":"307","nm_titulo_placa":"Palacetes Rizkallah Jorge Tahan","dc_enunciado_placa":"Natural de Alepo (Síria), Rizkallah Jorge Tahan (1869-1949) construiu nesta rua os palacetes São Jorge (nº 286), Paraíso (nº 301) e Alepo (nº 327), no final dos anos 1930, alguns dos primeiros edifícios de apartamentos da cidade de São Paulo","nm_endereco_placa":"R. Carlos de Sousa Nazaré, 286","dt_carga":"2026-04-17Z"}},{"type":"Feature","geometry":{"type":"Point","coordinates":[-46.6401,-23.54183002]},"properties":{"cd_identificador":"309","nm_titulo_placa":"Basílio Jafet","dc_enunciado_placa":"O empresário imigrante de origem libanesa (1866–1947) foi um dos idealizadores da fundação do Hospital Sírio-libanês e benemérito do Clube Atlético Monte Líbano. Este edifício, que o homenageia, foi ocupado em 2012 pelo movimento MMCR","nm_endereco_placa":"Av. Ipiranga, 879","dt_carga":"2026-04-17Z"}},{"type":"Feature","geometry":{"type":"Point","coordinates":[-46.63497,-23.54172002]},"properties":{"cd_identificador":"311","nm_titulo_placa":"Edifício Rizkallah Jorge Tahan","dc_enunciado_placa":"Erguido em 1945 pelo empresário sírio Rizkallah Jorge, foi projetado para ser o luxuoso Hotel Pinguim, nunca inaugurado. Abandonado nos anos 1980, o edifício foi ocupado por movimentos de moradia popular até ser","nm_endereco_placa":"R. Riskallah Jorge, 50","dt_carga":"2026-04-17Z"}},{"type":"Feature","geometry":{"type":"Point","coordinates":[-46.66302,-23.54512002]},"properties":{"cd_identificador":"313","nm_titulo_placa":"Auguste Perret","dc_enunciado_placa":"O conceituado arquiteto francês (1874-1954) projetou este edifício, seu único no Brasil, no fim da década de 1940, com base na ideia do conde Armando Alvares Penteado. Sediaria uma escola de arte, que originou a FAAP","nm_endereco_placa":"R. Alagoas, 903","dt_carga":"2026-04-17Z"}},{"type":"Feature","geometry":{"type":"Point","coordinates":[-46.66867105,-23.53590298]},"properties":{"cd_identificador":"314","nm_titulo_placa":"Haroldo de Campos","dc_enunciado_placa":"Poeta, escritor, crítico e tradutor (1929-2003), entre outros, é um dos fundadores do movimento concretista, junto a seu irmão Augusto de Campos e o amigo Décio Pignatari. Morou aqui por décadas, próximo à PUC, onde foi professor","nm_endereco_placa":"R. Monte Alegre, 635","dt_carga":"2026-04-17Z"}},{"type":"Feature","geometry":{"type":"Point","coordinates":[-46.63486,-23.55220002]},"properties":{"cd_identificador":"315","nm_titulo_placa":"Primeiros Abrigos de Bonde de São Paulo","dc_enunciado_placa":"Foram projetados pelos arquitetos Guilherme Malfatti e Antonio Garcia Moya, nos anos 1930, para uma cidade em modernização. Hoje adaptado, este abrigo é um dos últimos exemplares dessas obras art déco","nm_endereco_placa":"Pc. João Mendes, S/N","nm_local_placa":"Em frente à Igreja São Gonçalo","dt_carga":"2026-04-17Z"}},{"type":"Feature","geometry":{"type":"Point","coordinates":[-46.63044,-23.51776002]},"properties":{"cd_identificador":"316","nm_titulo_placa":"Playground do Clube Esperia","dc_enunciado_placa":"Inaugurado em 1966, o playground projetado por Waldemar Cordeiro sintetiza ideias do concretismo paulista, com brinquedos que propõem uma forma livre e criativa para a brincadeira infantil, dialogando com signos da cidade industrial","nm_endereco_placa":"Pc. Airton de Abreu, S/N","dt_carga":"2026-04-17Z"}},{"type":"Feature","geometry":{"type":"Point","coordinates":[-46.65872,-23.56033002]},"properties":{"cd_identificador":"317","nm_titulo_placa":"Roberto Burle Marx","dc_enunciado_placa":"O paisagista, botânico e artista (1909 -1994) nasceu num casarão nesta quadra. Marcou a arquitetura brasileira ao conceber jardins em projetos de Niemeyer e Rino Levi, com uso pioneiro de espécies tropicais","nm_endereco_placa":"Av. Paulista, 1853","nm_local_placa":"Parque Prefeito Mário Covas","dt_carga":"2026-04-17Z"}},{"type":"Feature","geometry":{"type":"Point","coordinates":[-46.63482,-23.55363002]},"properties":{"cd_identificador":"318","nm_titulo_placa":"Antonio Bento","dc_enunciado_placa":"O jurista (1843-1898) teve atuação importante no movimento abolicionista. Morou neste quarteirão, numa casa que se tornou reduto da luta pelo fim da escravidão. Foi demolida na década de 1900","nm_endereco_placa":"Av. Liberdade, 65","dt_carga":"2026-04-17Z"}},{"type":"Feature","geometry":{"type":"Point","coordinates":[-46.66368,-23.55671002]},"properties":{"cd_identificador":"319","nm_titulo_placa":"Zélia Gattai","dc_enunciado_placa":"Aqui, numa casa já demolida, morou nos anos 1910 e 1920 a fotógrafa, escritora e militante (1916–2008), junto com sua família de migrantes italianos anarquistas","nm_endereco_placa":"Al. Santos, 2534","dt_carga":"2026-04-17Z"}},{"type":"Feature","geometry":{"type":"Point","coordinates":[-46.63826,-23.53202002]},"properties":{"cd_identificador":"320","nm_titulo_placa":"Cine Lux","dc_enunciado_placa":"Aberto aqui em 1935, foi ponto de encontro de protestos contra o antissemitismo em 1955. Desativado, deu lugar ao Centro Comercial Bom Retiro em 1960, projeto do arquiteto polonês e judeu Lucjan Korngold","nm_endereco_placa":"R. José Paulino, 226","dt_carga":"2026-04-17Z"}},{"type":"Feature","geometry":{"type":"Point","coordinates":[-46.63105,-23.53505002]},"properties":{"cd_identificador":"321","nm_titulo_placa":"Rua São Caetano","dc_enunciado_placa":"Aberta em início do século 19 como caminho ao hospital de isolamento das pessoas com hanseníase, chegou a ser conhecida como Travessa do Seminário e Rua dos Lázaros. Hoje, é popularmente chamada de Rua das Noivas, em função do comércio local","nm_endereco_placa":"R. São Caetano, 216","dt_carga":"2026-04-17Z"}},{"type":"Feature","geometry":{"type":"Point","coordinates":[-46.63293,-23.53506002]},"properties":{"cd_identificador":"322","nm_titulo_placa":"Seminário Episcopal","dc_enunciado_placa":"Inaugurado parcialmente em 1856, o primeiro seminário da província foi uma referência na formação de sacerdotes e na educação básica. Na década de 1920, um trecho do conjunto edificado foi demolido, dando lugar à rua 25 de Janeiro","nm_endereco_placa":"Av. Tiradentes, 84","dt_carga":"2026-04-17Z"}},{"type":"Feature","geometry":{"type":"Point","coordinates":[-46.63425249,-23.55188656]},"properties":{"cd_identificador":"323","nm_titulo_placa":"Igreja Nossa Senhora dos Remédios","dc_enunciado_placa":"Ficava na praça em frente a este edifício. Erguida no século 19, abrigou agentes e eventos importantes do movimento abolicionista da cidade. Nos anos 1940, foi demolida por conta das obras de modernização da região central","nm_endereco_placa":"Praça Dr. João Mendes, 137","dt_carga":"2026-04-17Z"}},{"type":"Feature","geometry":{"type":"Point","coordinates":[-46.65772,-23.54672002]},"properties":{"cd_identificador":"324","nm_titulo_placa":"Primeiro edifício de Higienópolis","dc_enunciado_placa":"Projetado por Abel Drummond e erguido pela Construtora Barreto, Xande & Cia em 1933, com uma moradia por andar e lojas no térreo, foi o primeiro a marcar o processo de verticalização do bairro","nm_endereco_placa":"R. Alagoas, 350","dt_carga":"2026-04-17Z"}},{"type":"Feature","geometry":{"type":"Point","coordinates":[-46.64296,-23.54843002]},"properties":{"cd_identificador":"325","nm_titulo_placa":"Walter Hugo Khouri","dc_enunciado_placa":"Um dos mais controversos diretores de cinema brasileiros (1929-2003), teve São Paulo como pano de fundo de seus filmes. No filme “As Amorosas”, de 1968, Paulo José vagueia desnorteado por este cruzamento","nm_endereco_placa":"R. Martins Fontes, 71","dt_carga":"2026-04-17Z"}},{"type":"Feature","geometry":{"type":"Point","coordinates":[-46.65806,-23.53987002]},"properties":{"cd_identificador":"326","nm_titulo_placa":"Tarsila do Amaral","dc_enunciado_placa":"A artista plástica (1886-1973), autora de conhecidas obras da pintura modernista brasileira, viveu aqui, no décimo andar do edifício Ache, a partir dos anos 1960 até sua morte. Na sua sala, ficava a famosa obra “Os Operários”","nm_endereco_placa":"R. Albuquerque Lins, 1129","dt_carga":"2026-04-17Z"}},{"type":"Feature","geometry":{"type":"Point","coordinates":[-46.65406,-23.54480002]},"properties":{"cd_identificador":"327","nm_titulo_placa":"Caio Prado Jr.","dc_enunciado_placa":"O relevante intelectual marxista (1907-1990) viveu sua infância na Vila Antonieta, erguida neste terreno em 1903 com projeto de Carlos Ekman, e nos anos 1920, substituída por um palacete de Elisiário da Cunha Bahiana","nm_endereco_placa":"Av.Higienópolis, 195 c/ R. Sabará","dt_carga":"2026-04-17Z"}},{"type":"Feature","geometry":{"type":"Point","coordinates":[-46.65051,-23.54662002]},"properties":{"cd_identificador":"328","nm_titulo_placa":"Bar do Zé","dc_enunciado_placa":"Na batalha da Maria Antônia, em 1968, conflito entre estudantes da USP e do Mackenzie, o bar foi usado como esconderijo por aqueles ligados ao movimento de esquerda na época","nm_endereco_placa":"R. Maria Antônia, 216","dt_carga":"2026-04-17Z"}},{"type":"Feature","geometry":{"type":"Point","coordinates":[-46.63174,-23.53462002]},"properties":{"cd_identificador":"332","nm_titulo_placa":"Casa Gagliano","dc_enunciado_placa":"Inaugurada no início do século 20, foi uma popular loja de artigos pessoais e domésticos. Seu formato de propaganda nos jornais era único, com destaque a acidentes e incêndios na notícia, para chamar a atenção do leitor as promoções feitas na l","nm_endereco_placa":"R. São Caetano, 135","dt_carga":"2026-04-17Z"}},{"type":"Feature","geometry":{"type":"Point","coordinates":[-46.63133,-23.53038002]},"properties":{"cd_identificador":"333","nm_titulo_placa":"Capela de Nossa Senhora da Luz","dc_enunciado_placa":"Construída entre final do século 16 e início do 17, era um ponto de devoção para os que chegavam e saíam da cidade pelo chamado caminho do Guaré. A capelinha, que influenciou como se nomeia a região, deu lugar ao Mosteiro da Luz no final do séc","nm_endereco_placa":"Av. Tiradentes, 676","dt_carga":"2026-04-17Z"}},{"type":"Feature","geometry":{"type":"Point","coordinates":[-46.61646,-23.52073002]},"properties":{"cd_identificador":"334","nm_titulo_placa":"Favela do Canindé","dc_enunciado_placa":"Abrigou neste quarteirão, desde os anos 1940, famílias migrantes. Retratada pela escritora Carolina Maria de Jesus, que nela residiu, foi demolida em 1961, após sucesso do livro “Quarto de Despejo” e grave enchente","nm_endereco_placa":"R. Azurita, 100","dt_carga":"2026-04-17Z"}},{"type":"Feature","geometry":{"type":"Point","coordinates":[-46.62769352,-23.5334709]},"properties":{"cd_identificador":"335","nm_titulo_placa":"Hospital dos Lázaros","dc_enunciado_placa":"Por cerca de cem anos, funcionou nesta região a instituição cuja função era isolar aqueles que sofriam de hanseníase, à época chamados de leprosos ou lázaros. Em 1904, a edificação foi demolida e o hospital se instalou no Jaçanã","nm_endereco_placa":"R. João Teodoro, 547","dt_carga":"2026-04-17Z"}},{"type":"Feature","geometry":{"type":"Point","coordinates":[-46.63911,-23.54597002]},"properties":{"cd_identificador":"336","nm_titulo_placa":"Mappin Store","dc_enunciado_placa":"Projetado junto com o Viaduto do Chá pelo arquiteto Elisiário da Cunha Bahiana, este prédio Art Déco abrigou a Mappin Stores de 1939 até seu fechamento em 1999. A loja de departamentos foi consagrada como um importante ponto de compras na cidade","nm_endereco_placa":"R. Coronel Xavier de Toledo, 14","dt_carga":"2026-04-17Z"}},{"type":"Feature","geometry":{"type":"Point","coordinates":[-46.66409,-23.55476002]},"properties":{"cd_identificador":"345","nm_titulo_placa":"Monumento a Olavo Bilac","dc_enunciado_placa":"Erguido em 1922 nesta praça, foi fragmentado em oito esculturas em 1936. Desde então são tratadas como peças independentes, algumas expostas em espaços públicos, como o “Beijo Eterno”, no Largo São Francisco","nm_endereco_placa":"Pc. Marechal Cordeiro de Farias, S/N","dt_carga":"2026-04-17Z"}},{"type":"Feature","geometry":{"type":"Point","coordinates":[-46.64185957,-23.52803882]},"properties":{"cd_identificador":"347","nm_titulo_placa":"Barbearia de Salvador Battaglia","dc_enunciado_placa":"No período de criação do Corinthians, era aqui que os fundadores e primeiros associados se reuniam para discutir o futuro do time. Miguel Battaglia, irmão do proprietário da barbearia, foi o primeiro presidente do clube","nm_endereco_placa":"R. dos Italianos, 178","dt_carga":"2026-04-17Z"}},{"type":"Feature","geometry":{"type":"Point","coordinates":[-46.64191,-23.54650002]},"properties":{"cd_identificador":"349","nm_titulo_placa":"Paribar","dc_enunciado_placa":"Inaugurado em 1949, foi um ponto de efervescência cultural nas décadas de 1950 a 1970. Foi frequentado por personalidades como Tarsila do Amaral, Candido Portinari e Sergio Millet, além dos políticos Jânio Quadros, Adhemar de Barros e Delfim Netto","nm_endereco_placa":"Pc. Dom José Gaspar, 42","dt_carga":"2026-04-17Z"}},{"type":"Feature","geometry":{"type":"Point","coordinates":[-46.64905654,-23.53590101]},"properties":{"cd_identificador":"350","nm_titulo_placa":"Amácio Mazzaropi","dc_enunciado_placa":"Viveu nesta rua o ator, humorista, cantor e cineasta brasileiro (1912-1981), considerado um dos maiores cômicos do cinema brasileiro. Suas produções foram fenômeno de público por mais de três décadas","nm_endereco_placa":"R. Vitorino Carmilo, 58","dt_carga":"2026-04-17Z"}},{"type":"Feature","geometry":{"type":"Point","coordinates":[-46.60862,-23.55696002]},"properties":{"cd_identificador":"351","nm_titulo_placa":"Companhia Antarctica Paulista","dc_enunciado_placa":"A pioneira indústria cervejeira do país fundada em 1885 teve sede na Água Branca e depois aqui. Promoveu a criação de vários equipamentos urbanos, como o Parque Antarctica e salas de cinema e teatro no centro","nm_endereco_placa":"Av. Monsenor Josão Felipe, S/N","nm_local_placa":"Entre o ponto de ônibus e a chaminé da Antarctica","dt_carga":"2026-04-17Z"}},{"type":"Feature","geometry":{"type":"Point","coordinates":[-46.62236357,-23.53117111]},"properties":{"cd_identificador":"352","nm_titulo_placa":"Enchente de 1929","dc_enunciado_placa":"Considerada uma das maiores na história da cidade e ligada à ação da Light, atingiu naquele ano várzeas de São Paulo. Nesta esquina houve um dos pontos de socorro e remoção de moradores, evacuados em botes","nm_endereco_placa":"R. Carlos Campos, 504","dt_carga":"2026-04-17Z"}},{"type":"Feature","geometry":{"type":"Point","coordinates":[-46.65596,-23.56151002]},"properties":{"cd_identificador":"353","nm_titulo_placa":"Jornadas de Junho","dc_enunciado_placa":"Em 2013, um aumento da tarifa dos transportes levou o Movimento Passe Livre a organizar manifestações na Paulista e outros locais, as quais culminaram num dos maiores movimentos nacionais de protestos na história das lutas populares do país","nm_endereco_placa":"Av. Paulista, 1578","nm_local_placa":"MASP","dt_carga":"2026-04-17Z"}},{"type":"Feature","geometry":{"type":"Point","coordinates":[-46.60779121,-23.55672198]},"properties":{"cd_identificador":"354","nm_titulo_placa":"Oficina tipográfica Casa Vanorden","dc_enunciado_placa":"Neste prédio funcionou a empresa, que começou suas atividades por volta de 1890 por iniciativa do holandês Emanuel Vanorden. Destacou-se, na primeira metade do século 20, por seu porte e qualidade","nm_endereco_placa":"R. Monsenhor João Felippo, 1 c/ R. Borges de Figueiredo","dt_carga":"2026-04-17Z"}},{"type":"Feature","geometry":{"type":"Point","coordinates":[-46.63599,-23.55073002]},"properties":{"cd_identificador":"355","nm_titulo_placa":"Tipografia Hennies Irmãos","dc_enunciado_placa":"Fundada em 1891 por imigrantes alemães, teve seu auge aqui, entre 1906 e 1955. Produziu materiais gráficos e impressos para comunidades imigrantes em sete idiomas, e foi pioneira na produção de cartões em alto-relevo","nm_endereco_placa":"R. Riachuelo, 78","dt_carga":"2026-04-17Z"}},{"type":"Feature","geometry":{"type":"Point","coordinates":[-46.6363,-23.54942002]},"properties":{"cd_identificador":"356","nm_titulo_placa":"Assassinato de Joílson de Jesus","dc_enunciado_placa":"Nesta rua, em dezembro de 1983, o menino negro de 15 anos, que há dias estava sem comer, foi espancado até a morte por um procurador que o acusou de roubar uma corrente de ouro, assassinando-o sem provas ou direito de defesa","nm_endereco_placa":"R. Senador Paulo Egídio, 72","dt_carga":"2026-04-17Z"}},{"type":"Feature","geometry":{"type":"Point","coordinates":[-46.65209,-23.52004002]},"properties":{"cd_identificador":"360","nm_titulo_placa":"Antonio D'Auria","dc_enunciado_placa":"O músico (1912-1999), membro do Conjunto Atlântico, morou aqui, onde se reuniram tradicionais rodas de choro entre as décadas de 1950 e 1980, o que ajudou a perpetuar o gênero musical no país","nm_endereco_placa":"Av. Rudge, 944","dt_carga":"2026-04-17Z"}},{"type":"Feature","geometry":{"type":"Point","coordinates":[-46.61158,-23.54009002]},"properties":{"cd_identificador":"361","nm_titulo_placa":"Antiga garagem de bondes e trólebus","dc_enunciado_placa":"Erguida em 1906 para abrigar os bondes elétricos da Light e mais tarde os trólebus da CMTC, esta garagem acompanhou toda a evolução do transporte público paulistano","nm_endereco_placa":"Av. Celso Garcia c/ R. José de Alencar","dt_carga":"2026-04-17Z"}},{"type":"Feature","geometry":{"type":"Point","coordinates":[-46.63706,-23.55800002]},